[
  {
    "name": "第44回 洞爺湖ロングラン花火大会",
    "area": "北海道・虻田郡洞爺湖町/洞爺湖温泉湖畔",
    "date": "日程：2025年4月28日(月)～10月31日(金)",
    "link": "https://hanabi.walkerplus.com/detail/ar0101e66092/",
    "location": {
      "type": "Point",
      "coordinates": [
        140.823043,
        42.566346
      ]
    }
  },
  {
    "name": "東京競馬場花火 2025 〜花火と聴きたい J-POP BEST〜",
    "area": "東京都・府中市/JRA東京競馬場",
    "date": "日程：2025年7月2日(水)",
    "link": "https://hanabi.walkerplus.com/detail/ar0313e436729/",
    "location": {
      "type": "Point",
      "coordinates": [
        139.485592,
        35.662505
      ]
    }
  },
  {
    "name": "第44回 洞爺湖ロングラン花火大会",
    "area": "北海道・虻田郡洞爺湖町/洞爺湖温泉湖畔",
    "date": "日程：2025年4月28日(月)～10月31日(金)",
    "link": "https://hanabi.walkerplus.com/detail/ar0101e66092/",
    "location": {
      "type": "Point",
      "coordinates": [
        140.823043,
        42.566346
      ]
    }
  },
  {
    "name": "地獄の谷の鬼花火",
    "area": "北海道・登別市/登別温泉 地獄谷展望台",
    "date": "日程：2025年6月1日(日)、6月2日～6月30日の月曜・木曜、および7月3日～31日・9月4日～25日の木曜2025年6月1日(日)オープニング、9月25日(木)ファイナル  ※2025年7月31日(木)の花火大会は津波警報発令に伴い中止となりました",
    "link": "https://hanabi.walkerplus.com/detail/ar0101e00610/",
    "location": {
      "type": "Point",
      "coordinates": [
        141.146416,
        42.497392
      ]
    }
  },
  {
    "name": "第44回 洞爺湖ロングラン花火大会",
    "area": "北海道・虻田郡洞爺湖町/洞爺湖温泉湖畔",
    "date": "日程：2025年4月28日(月)～10月31日(金)",
    "link": "https://hanabi.walkerplus.com/detail/ar0101e66092/",
    "location": {
      "type": "Point",
      "coordinates": [
        140.823043,
        42.566346
      ]
    }
  },
  {
    "name": "第44回 洞爺湖ロングラン花火大会",
    "area": "北海道・虻田郡洞爺湖町/洞爺湖温泉湖畔",
    "date": "日程：2025年4月28日(月)～10月31日(金)",
    "link": "https://hanabi.walkerplus.com/detail/ar0101e66092/",
    "location": {
      "type": "Point",
      "coordinates": [
        140.823043,
        42.566346
      ]
    }
  },
  {
    "name": "横浜ナイトフラワーズ2025",
    "area": "神奈川県・横浜市中区/横浜港(新港ふ頭、大さん橋)",
    "date": "日程：2025年9/14、10/11・25、11/8・22、12/24・31年間を通じ毎月打ち上げの予定",
    "link": "https://hanabi.walkerplus.com/detail/ar0314e541039/",
    "location": {
      "type": "Point",
      "coordinates": [
        139.642916,
        35.45753
      ]
    }
  },
  {
    "name": "舟見七夕花火",
    "area": "富山県・下新川郡入善町/舟見地区",
    "date": "日程：2025年7月5日(土)",
    "link": "https://hanabi.walkerplus.com/detail/ar0516e00671/",
    "location": {
      "type": "Point",
      "coordinates": [
        137.556102,
        36.886829
      ]
    }
  },
  {
    "name": "アニメクラシックス アニソン花火",
    "area": "山梨県・南巨摩郡富士川町/富士川いきいきスポーツ公園 特設会場",
    "date": "日程：2025年7月5日(土)",
    "link": "https://hanabi.walkerplus.com/detail/ar0419e549588/",
    "location": {
      "type": "Point",
      "coordinates": [
        138.466762,
        35.547486
      ]
    }
  },
  {
    "name": "富士山・河口湖山開き花火大会",
    "area": "山梨県・南都留郡富士河口湖町/大池公園",
    "date": "日程：2025年7月5日(土)",
    "link": "https://hanabi.walkerplus.com/detail/ar0419e00245/",
    "location": {
      "type": "Point",
      "coordinates": [
        138.763815,
        35.507828
      ]
    }
  },
  {
    "name": "ふじおかおいでん夏まつり",
    "area": "愛知県・豊田市/藤岡コミュニティ広場",
    "date": "日程：2025年7月5日(土)",
    "link": "https://hanabi.walkerplus.com/detail/ar0623e00518/",
    "location": {
      "type": "Point",
      "coordinates": [
        137.208054,
        35.200265
      ]
    }
  },
  {
    "name": "御田祭の里花火大会",
    "area": "宮崎県・東臼杵郡美郷町/葉桜ふれあい公園",
    "date": "日程：2025年7月5日(土)御田祭は205年7月5日(土)・6(日)",
    "link": "https://hanabi.walkerplus.com/detail/ar1045e00334/",
    "location": {
      "type": "Point",
      "coordinates": [
        131.427766,
        32.433591
      ]
    }
  },
  {
    "name": "海洋博美ら海花火大会2025",
    "area": "沖縄県・国頭郡本部町/国営沖縄記念公園(海洋博公園)・エメラルドビーチ",
    "date": "日程：2025年7月5日(土)",
    "link": "https://hanabi.walkerplus.com/detail/ar1047e00709/",
    "location": {
      "type": "Point",
      "coordinates": [
        127.877956,
        26.699267
      ]
    }
  },
  {
    "name": "ムーミン谷の湖上花火大会～夏～",
    "area": "埼玉県・飯能市/ムーミンバレーパーク",
    "date": "日程：2025/7/5日(土)、12日(土)、19日(土)～21日(月)、26日(土)～8/24日(日)2025年8月9日(土)は19:40～20:00「～ムーミンの日記念～花火大会」のスペシャルバージョン",
    "link": "https://hanabi.walkerplus.com/detail/ar0311e516645/",
    "location": {
      "type": "Point",
      "coordinates": [
        139.327329,
        35.87098
      ]
    }
  },
  {
    "name": "神戸港ウィークエンド花火",
    "area": "兵庫県・神戸市中央区/メリケンパーク",
    "date": "日程：通年年間を通じて原則、第1・3土曜日に実施。8月は夏休み企画として、毎週金曜と土曜に実施",
    "link": "https://hanabi.walkerplus.com/detail/ar0728e520588/",
    "location": {
      "type": "Point",
      "coordinates": [
        135.188677,
        34.682298
      ]
    }
  },
  {
    "name": "第44回 洞爺湖ロングラン花火大会",
    "area": "北海道・虻田郡洞爺湖町/洞爺湖温泉湖畔",
    "date": "日程：2025年4月28日(月)～10月31日(金)",
    "link": "https://hanabi.walkerplus.com/detail/ar0101e66092/",
    "location": {
      "type": "Point",
      "coordinates": [
        140.823043,
        42.566346
      ]
    }
  },
  {
    "name": "第44回 洞爺湖ロングラン花火大会",
    "area": "北海道・虻田郡洞爺湖町/洞爺湖温泉湖畔",
    "date": "日程：2025年4月28日(月)～10月31日(金)",
    "link": "https://hanabi.walkerplus.com/detail/ar0101e66092/",
    "location": {
      "type": "Point",
      "coordinates": [
        140.823043,
        42.566346
      ]
    }
  },
  {
    "name": "第44回 洞爺湖ロングラン花火大会",
    "area": "北海道・虻田郡洞爺湖町/洞爺湖温泉湖畔",
    "date": "日程：2025年4月28日(月)～10月31日(金)",
    "link": "https://hanabi.walkerplus.com/detail/ar0101e66092/",
    "location": {
      "type": "Point",
      "coordinates": [
        140.823043,
        42.566346
      ]
    }
  },
  {
    "name": "第44回 洞爺湖ロングラン花火大会",
    "area": "北海道・虻田郡洞爺湖町/洞爺湖温泉湖畔",
    "date": "日程：2025年4月28日(月)～10月31日(金)",
    "link": "https://hanabi.walkerplus.com/detail/ar0101e66092/",
    "location": {
      "type": "Point",
      "coordinates": [
        140.823043,
        42.566346
      ]
    }
  },
  {
    "name": "第44回 洞爺湖ロングラン花火大会",
    "area": "北海道・虻田郡洞爺湖町/洞爺湖温泉湖畔",
    "date": "日程：2025年4月28日(月)～10月31日(金)",
    "link": "https://hanabi.walkerplus.com/detail/ar0101e66092/",
    "location": {
      "type": "Point",
      "coordinates": [
        140.823043,
        42.566346
      ]
    }
  },
  {
    "name": "地獄の谷の鬼花火",
    "area": "北海道・登別市/登別温泉 地獄谷展望台",
    "date": "日程：2025年6月1日(日)、6月2日～6月30日の月曜・木曜、および7月3日～31日・9月4日～25日の木曜2025年6月1日(日)オープニング、9月25日(木)ファイナル  ※2025年7月31日(木)の花火大会は津波警報発令に伴い中止となりました",
    "link": "https://hanabi.walkerplus.com/detail/ar0101e00610/",
    "location": {
      "type": "Point",
      "coordinates": [
        141.146416,
        42.497392
      ]
    }
  },
  {
    "name": "第44回 洞爺湖ロングラン花火大会",
    "area": "北海道・虻田郡洞爺湖町/洞爺湖温泉湖畔",
    "date": "日程：2025年4月28日(月)～10月31日(金)",
    "link": "https://hanabi.walkerplus.com/detail/ar0101e66092/",
    "location": {
      "type": "Point",
      "coordinates": [
        140.823043,
        42.566346
      ]
    }
  },
  {
    "name": "MARINES HANABI (マリーンズ花火)",
    "area": "千葉県・千葉市美浜区/ZOZOマリンスタジアム",
    "date": "日程：2025年7月11日(金)～8月11日(祝)の特定日7月11日(金)～13日(日)・18日(金)～21日(祝)・29日(火)・30日(水)・8月5日(火)～7日(木)・9日(土)～11日(祝)に実施",
    "link": "https://hanabi.walkerplus.com/detail/ar0312e01090/",
    "location": {
      "type": "Point",
      "coordinates": [
        140.029152,
        35.644236
      ]
    }
  },
  {
    "name": "第44回 洞爺湖ロングラン花火大会",
    "area": "北海道・虻田郡洞爺湖町/洞爺湖温泉湖畔",
    "date": "日程：2025年4月28日(月)～10月31日(金)",
    "link": "https://hanabi.walkerplus.com/detail/ar0101e66092/",
    "location": {
      "type": "Point",
      "coordinates": [
        140.823043,
        42.566346
      ]
    }
  },
  {
    "name": "横浜ナイトフラワーズ2025",
    "area": "神奈川県・横浜市中区/横浜港(新港ふ頭、大さん橋)",
    "date": "日程：2025年9/14、10/11・25、11/8・22、12/24・31年間を通じ毎月打ち上げの予定",
    "link": "https://hanabi.walkerplus.com/detail/ar0314e541039/",
    "location": {
      "type": "Point",
      "coordinates": [
        139.642916,
        35.45753
      ]
    }
  },
  {
    "name": "第13回 真駒内花火大会",
    "area": "北海道・札幌市南区/真駒内セキスイハイムスタジアム",
    "date": "日程：2025年7月12日(土)",
    "link": "https://hanabi.walkerplus.com/detail/ar0101e01110/",
    "location": {
      "type": "Point",
      "coordinates": [
        141.34292,
        42.996267
      ]
    }
  },
  {
    "name": "ファイターズかわいいシリーズ花火大会supported by ビックカメラ",
    "area": "北海道・北広島市/エスコンフィールドHOKKAIDO",
    "date": "日程：2025年7月12日(土)",
    "link": "https://hanabi.walkerplus.com/detail/ar0101e505656/",
    "location": {
      "type": "Point",
      "coordinates": [
        141.549292,
        42.990506
      ]
    }
  },
  {
    "name": "第42回 なかふらのラベンダーまつり＆花火大会",
    "area": "北海道・空知郡中富良野町/北星山ラベンダー園/なかふらのフラワーパーク",
    "date": "日程：2025年7月12日(土)",
    "link": "https://hanabi.walkerplus.com/detail/ar0101e00729/",
    "location": {
      "type": "Point",
      "coordinates": [
        142.421164,
        43.411299
      ]
    }
  },
  {
    "name": "第46回 くんねっぷふるさとまつり",
    "area": "北海道・常呂郡訓子府町/常呂川河川敷",
    "date": "日程：2025年7月12日(土)第46回 くんねっぷふるさとまつり7月12日(土)・13日(日)",
    "link": "https://hanabi.walkerplus.com/detail/ar0101e00141/",
    "location": {
      "type": "Point",
      "coordinates": [
        143.741436,
        43.720884
      ]
    }
  },
  {
    "name": "第32回 ジャックドまつり",
    "area": "青森県・三戸郡南部町/南部町ふれあい公園",
    "date": "日程：2025年7月12日(土)ジャックドまつり7月12日(土)・13日(日)",
    "link": "https://hanabi.walkerplus.com/detail/ar0202e01095/",
    "location": {
      "type": "Point",
      "coordinates": [
        141.378872,
        40.463862
      ]
    }
  },
  {
    "name": "ダイワロイネットホテルズpresents 第10回楽天イーグルス花火大会",
    "area": "宮城県・仙台市宮城野区/楽天モバイルパーク宮城",
    "date": "日程：2025年7月12日(土)",
    "link": "https://hanabi.walkerplus.com/detail/ar0204e553976/",
    "location": {
      "type": "Point",
      "coordinates": [
        140.902649,
        38.256323
      ]
    }
  },
  {
    "name": "田園夢花火2025 第35回 たまむら花火大会",
    "area": "群馬県・佐波郡玉村町/玉村町上陽地区(上陽小学校西側)",
    "date": "日程：2025年7月12日(土)",
    "link": "https://hanabi.walkerplus.com/detail/ar0310e00986/",
    "location": {
      "type": "Point",
      "coordinates": [
        139.119847,
        36.322548
      ]
    }
  },
  {
    "name": "ぎおん・野島祭り花火大会",
    "area": "愛知県・知多郡南知多町/篠島漁港沖堤",
    "date": "日程：2025年7月12日(土)",
    "link": "https://hanabi.walkerplus.com/detail/ar0623e00195/",
    "location": {
      "type": "Point",
      "coordinates": [
        137.003253,
        34.683217
      ]
    }
  },
  {
    "name": "ぎおんまつり花火大会",
    "area": "愛知県・知多郡南知多町/日間賀島西浜海水浴場",
    "date": "日程：2025年7月12日(土)",
    "link": "https://hanabi.walkerplus.com/detail/ar0623e00180/",
    "location": {
      "type": "Point",
      "coordinates": [
        136.996685,
        34.705287
      ]
    }
  },
  {
    "name": "とっとり花火回廊2025",
    "area": "鳥取県・西伯郡南部町/とっとり花回廊",
    "date": "日程：2025年7月12日(土)",
    "link": "https://hanabi.walkerplus.com/detail/ar0831e508462/",
    "location": {
      "type": "Point",
      "coordinates": [
        133.425071,
        35.347531
      ]
    }
  },
  {
    "name": "令和7年度 篠栗祇園夏まつり 納涼花火大会",
    "area": "福岡県・糟屋郡篠栗町/篠栗町上町",
    "date": "日程：2025年7月12日(土)",
    "link": "https://hanabi.walkerplus.com/detail/ar1040e00286/",
    "location": {
      "type": "Point",
      "coordinates": [
        130.534351,
        33.622989
      ]
    }
  },
  {
    "name": "さのよいファイヤーカーニバル2025",
    "area": "熊本県・荒尾市/グリーンランド (遊園地)",
    "date": "日程：2025年7月12日(土)さのよい踊りコンテストは7月13日(日)に開催。詳細は公式サイト参照",
    "link": "https://hanabi.walkerplus.com/detail/ar1043e00957/",
    "location": {
      "type": "Point",
      "coordinates": [
        130.465285,
        32.98682
      ]
    }
  },
  {
    "name": "第30回 さざ波フェスタ2025",
    "area": "熊本県・天草市/四郎ヶ浜ビーチ沖",
    "date": "日程：2025年7月12日(土)第30回 さざ波フェスタ2025は7月12日(土)・13日(日)",
    "link": "https://hanabi.walkerplus.com/detail/ar1043e00423/",
    "location": {
      "type": "Point",
      "coordinates": [
        130.307043,
        32.509813
      ]
    }
  },
  {
    "name": "MARINES HANABI (マリーンズ花火)",
    "area": "千葉県・千葉市美浜区/ZOZOマリンスタジアム",
    "date": "日程：2025年7月11日(金)～8月11日(祝)の特定日7月11日(金)～13日(日)・18日(金)～21日(祝)・29日(火)・30日(水)・8月5日(火)～7日(木)・9日(土)～11日(祝)に実施",
    "link": "https://hanabi.walkerplus.com/detail/ar0312e01090/",
    "location": {
      "type": "Point",
      "coordinates": [
        140.029152,
        35.644236
      ]
    }
  },
  {
    "name": "ムーミン谷の湖上花火大会～夏～",
    "area": "埼玉県・飯能市/ムーミンバレーパーク",
    "date": "日程：2025/7/5日(土)、12日(土)、19日(土)～21日(月)、26日(土)～8/24日(日)2025年8月9日(土)は19:40～20:00「～ムーミンの日記念～花火大会」のスペシャルバージョン",
    "link": "https://hanabi.walkerplus.com/detail/ar0311e516645/",
    "location": {
      "type": "Point",
      "coordinates": [
        139.327329,
        35.87098
      ]
    }
  },
  {
    "name": "第27回 阿字ヶ浦海岸花火大会",
    "area": "茨城県・ひたちなか市/阿字ヶ浦海岸",
    "date": "日程：2025年7/12(土)、7/19日(土)、7/26(土)、8/2(土)、8/13(水)、8/23(土)、8/30(土)",
    "link": "https://hanabi.walkerplus.com/detail/ar0308e00258/",
    "location": {
      "type": "Point",
      "coordinates": [
        140.62245,
        36.386798
      ]
    }
  },
  {
    "name": "南紀白浜温泉 2025年メッセージ花火",
    "area": "和歌山県・西牟婁郡白浜町/白良浜海岸",
    "date": "日程：2025年7月12日(土)・19日(土)・26日(土)、8月2日(土)・9日(土)・16日(土)・23日(土)・30日(土)",
    "link": "https://hanabi.walkerplus.com/detail/ar0730e356982/",
    "location": {
      "type": "Point",
      "coordinates": [
        135.342883,
        33.680475
      ]
    }
  },
  {
    "name": "メッツァの北欧花火2025",
    "area": "埼玉県・飯能市/メッツァ(メッツァビレッジ・ムーミンバレーパーク)",
    "date": "日程：2025/7/12(土)・19(土)・20(日)・26(土)、8/2(土)・10(日)～12(火)・16(土)9/13(土)・14(日)・20(土)・21(日)",
    "link": "https://hanabi.walkerplus.com/detail/ar0311e471906/",
    "location": {
      "type": "Point",
      "coordinates": [
        139.332957,
        35.871121
      ]
    }
  },
  {
    "name": "第44回 洞爺湖ロングラン花火大会",
    "area": "北海道・虻田郡洞爺湖町/洞爺湖温泉湖畔",
    "date": "日程：2025年4月28日(月)～10月31日(金)",
    "link": "https://hanabi.walkerplus.com/detail/ar0101e66092/",
    "location": {
      "type": "Point",
      "coordinates": [
        140.823043,
        42.566346
      ]
    }
  },
  {
    "name": "第54回 あかびら火まつり市民花火大会",
    "area": "北海道・赤平市/赤平市コミュニティ広場",
    "date": "日程：2025年7月13日(日)あかびら火まつりは7月12日(土)・13日(日)",
    "link": "https://hanabi.walkerplus.com/detail/ar0101e40179/",
    "location": {
      "type": "Point",
      "coordinates": [
        142.058076,
        43.551757
      ]
    }
  },
  {
    "name": "第4回 芽室花火大会「華音2025」",
    "area": "北海道・河西郡芽室町/芽室公園",
    "date": "日程：2025年7月13日(日)前夜祭7月12日(土)15:00～20:00",
    "link": "https://hanabi.walkerplus.com/detail/ar0101e510118/",
    "location": {
      "type": "Point",
      "coordinates": [
        143.04508,
        42.919311
      ]
    }
  },
  {
    "name": "小城市ムツゴロウ王国芦刈夏まつり",
    "area": "佐賀県・小城市/ムツゴロウ公園堤防周辺",
    "date": "日程：2025年7月13日(日)",
    "link": "https://hanabi.walkerplus.com/detail/ar1041e00309/",
    "location": {
      "type": "Point",
      "coordinates": [
        130.214638,
        33.198584
      ]
    }
  },
  {
    "name": "MARINES HANABI (マリーンズ花火)",
    "area": "千葉県・千葉市美浜区/ZOZOマリンスタジアム",
    "date": "日程：2025年7月11日(金)～8月11日(祝)の特定日7月11日(金)～13日(日)・18日(金)～21日(祝)・29日(火)・30日(水)・8月5日(火)～7日(木)・9日(土)～11日(祝)に実施",
    "link": "https://hanabi.walkerplus.com/detail/ar0312e01090/",
    "location": {
      "type": "Point",
      "coordinates": [
        140.029152,
        35.644236
      ]
    }
  },
  {
    "name": "第44回 洞爺湖ロングラン花火大会",
    "area": "北海道・虻田郡洞爺湖町/洞爺湖温泉湖畔",
    "date": "日程：2025年4月28日(月)～10月31日(金)",
    "link": "https://hanabi.walkerplus.com/detail/ar0101e66092/",
    "location": {
      "type": "Point",
      "coordinates": [
        140.823043,
        42.566346
      ]
    }
  },
  {
    "name": "第44回 洞爺湖ロングラン花火大会",
    "area": "北海道・虻田郡洞爺湖町/洞爺湖温泉湖畔",
    "date": "日程：2025年4月28日(月)～10月31日(金)",
    "link": "https://hanabi.walkerplus.com/detail/ar0101e66092/",
    "location": {
      "type": "Point",
      "coordinates": [
        140.823043,
        42.566346
      ]
    }
  },
  {
    "name": "第44回 洞爺湖ロングラン花火大会",
    "area": "北海道・虻田郡洞爺湖町/洞爺湖温泉湖畔",
    "date": "日程：2025年4月28日(月)～10月31日(金)",
    "link": "https://hanabi.walkerplus.com/detail/ar0101e66092/",
    "location": {
      "type": "Point",
      "coordinates": [
        140.823043,
        42.566346
      ]
    }
  },
  {
    "name": "しおざわ夏まつり 花火大会",
    "area": "新潟県・南魚沼市/塩沢中学校裏魚野川周辺",
    "date": "日程：2025年7月16日(水)",
    "link": "https://hanabi.walkerplus.com/detail/ar0415e00052/",
    "location": {
      "type": "Point",
      "coordinates": [
        138.853077,
        37.029034
      ]
    }
  },
  {
    "name": "第44回 洞爺湖ロングラン花火大会",
    "area": "北海道・虻田郡洞爺湖町/洞爺湖温泉湖畔",
    "date": "日程：2025年4月28日(月)～10月31日(金)",
    "link": "https://hanabi.walkerplus.com/detail/ar0101e66092/",
    "location": {
      "type": "Point",
      "coordinates": [
        140.823043,
        42.566346
      ]
    }
  },
  {
    "name": "地獄の谷の鬼花火",
    "area": "北海道・登別市/登別温泉 地獄谷展望台",
    "date": "日程：2025年6月1日(日)、6月2日～6月30日の月曜・木曜、および7月3日～31日・9月4日～25日の木曜2025年6月1日(日)オープニング、9月25日(木)ファイナル  ※2025年7月31日(木)の花火大会は津波警報発令に伴い中止となりました",
    "link": "https://hanabi.walkerplus.com/detail/ar0101e00610/",
    "location": {
      "type": "Point",
      "coordinates": [
        141.146416,
        42.497392
      ]
    }
  },
  {
    "name": "第44回 洞爺湖ロングラン花火大会",
    "area": "北海道・虻田郡洞爺湖町/洞爺湖温泉湖畔",
    "date": "日程：2025年4月28日(月)～10月31日(金)",
    "link": "https://hanabi.walkerplus.com/detail/ar0101e66092/",
    "location": {
      "type": "Point",
      "coordinates": [
        140.823043,
        42.566346
      ]
    }
  },
  {
    "name": "第77回 鎌倉花火大会",
    "area": "神奈川県・鎌倉市/由比ヶ浜海岸・材木座海岸",
    "date": "日程：2025年7月18日(金)※2025年7月18日(金)の花火大会は中止となりました",
    "link": "https://hanabi.walkerplus.com/detail/ar0314e00875/",
    "location": {
      "type": "Point",
      "coordinates": [
        139.544287,
        35.307631
      ]
    }
  },
  {
    "name": "豊橋祇園祭",
    "area": "愛知県・豊橋市/吉田神社境内、豊川河畔",
    "date": "日程：2025年7月18日(金)・19日(土)7月18日(金)手筒花火、7月19日(土)打上花火",
    "link": "https://hanabi.walkerplus.com/detail/ar0623e00992/",
    "location": {
      "type": "Point",
      "coordinates": [
        137.389048,
        34.772421
      ]
    }
  },
  {
    "name": "豊川夏まつり「豊川進雄神社例大祭」",
    "area": "愛知県・豊川市/豊川進雄神社境内、社務所前",
    "date": "日程：2025年7月18日(金)・19日(土)豊川祭りは7月18日(金)～20日(日)",
    "link": "https://hanabi.walkerplus.com/detail/ar0623e00346/",
    "location": {
      "type": "Point",
      "coordinates": [
        137.396039,
        34.825906
      ]
    }
  },
  {
    "name": "MARINES HANABI (マリーンズ花火)",
    "area": "千葉県・千葉市美浜区/ZOZOマリンスタジアム",
    "date": "日程：2025年7月11日(金)～8月11日(祝)の特定日7月11日(金)～13日(日)・18日(金)～21日(祝)・29日(火)・30日(水)・8月5日(火)～7日(木)・9日(土)～11日(祝)に実施",
    "link": "https://hanabi.walkerplus.com/detail/ar0312e01090/",
    "location": {
      "type": "Point",
      "coordinates": [
        140.029152,
        35.644236
      ]
    }
  },
  {
    "name": "第44回 洞爺湖ロングラン花火大会",
    "area": "北海道・虻田郡洞爺湖町/洞爺湖温泉湖畔",
    "date": "日程：2025年4月28日(月)～10月31日(金)",
    "link": "https://hanabi.walkerplus.com/detail/ar0101e66092/",
    "location": {
      "type": "Point",
      "coordinates": [
        140.823043,
        42.566346
      ]
    }
  },
  {
    "name": "第72回 北見ぼんちまつり納涼花火大会",
    "area": "北海道・北見市/春光町・小泉河川敷地",
    "date": "日程：2025年7月19日(土)祭は7月18日(金)、19日(土)",
    "link": "https://hanabi.walkerplus.com/detail/ar0101e00975/",
    "location": {
      "type": "Point",
      "coordinates": [
        143.925082,
        43.817962
      ]
    }
  },
  {
    "name": "第21回 港まつり 能代の花火",
    "area": "秋田県・能代市/能代港下浜ふ頭特設会場",
    "date": "日程：2025年7月19日(土)",
    "link": "https://hanabi.walkerplus.com/detail/ar0205e01043/",
    "location": {
      "type": "Point",
      "coordinates": [
        140.015172,
        40.219591
      ]
    }
  },
  {
    "name": "第39回日本海洋上花火大会",
    "area": "秋田県・由利本荘市/道川漁港海上",
    "date": "日程：2025年7月19日(土)",
    "link": "https://hanabi.walkerplus.com/detail/ar0205e00035/",
    "location": {
      "type": "Point",
      "coordinates": [
        140.047163,
        39.542813
      ]
    }
  },
  {
    "name": "南魚沼市兼続公まつり 大煙火大会",
    "area": "新潟県・南魚沼市/六日町大橋下流魚野川河畔",
    "date": "日程：2025年7月19日(土)",
    "link": "https://hanabi.walkerplus.com/detail/ar0415e01053/",
    "location": {
      "type": "Point",
      "coordinates": [
        138.890145,
        37.073284
      ]
    }
  },
  {
    "name": "第37回 おがせ池夏まつり花火大会",
    "area": "岐阜県・各務原市/おがせ池",
    "date": "日程：2025年7月19日(土)",
    "link": "https://hanabi.walkerplus.com/detail/ar0621e00190/",
    "location": {
      "type": "Point",
      "coordinates": [
        136.910312,
        35.412129
      ]
    }
  },
  {
    "name": "第72回 安倍川花火大会",
    "area": "静岡県・静岡市葵区/安倍川河川敷(田町三丁目付近)",
    "date": "日程：2025年7月19日(土)※2025年7月19日(土)の花火大会は中止となりました",
    "link": "https://hanabi.walkerplus.com/detail/ar0622e00889/",
    "location": {
      "type": "Point",
      "coordinates": [
        138.362038,
        34.970696
      ]
    }
  },
  {
    "name": "愛宕山手筒花火",
    "area": "静岡県・磐田市/東坂町愛宕神社境内",
    "date": "日程：2025年7月19日(土)",
    "link": "https://hanabi.walkerplus.com/detail/ar0622e00519/",
    "location": {
      "type": "Point",
      "coordinates": [
        137.864224,
        34.727036
      ]
    }
  },
  {
    "name": "豊橋祇園祭",
    "area": "愛知県・豊橋市/吉田神社境内、豊川河畔",
    "date": "日程：2025年7月18日(金)・19日(土)7月18日(金)手筒花火、7月19日(土)打上花火",
    "link": "https://hanabi.walkerplus.com/detail/ar0623e00992/",
    "location": {
      "type": "Point",
      "coordinates": [
        137.389048,
        34.772421
      ]
    }
  },
  {
    "name": "豊川夏まつり「豊川進雄神社例大祭」",
    "area": "愛知県・豊川市/豊川進雄神社境内、社務所前",
    "date": "日程：2025年7月18日(金)・19日(土)豊川祭りは7月18日(金)～20日(日)",
    "link": "https://hanabi.walkerplus.com/detail/ar0623e00346/",
    "location": {
      "type": "Point",
      "coordinates": [
        137.396039,
        34.825906
      ]
    }
  },
  {
    "name": "大足区祭礼(大足蛇車まつり)",
    "area": "愛知県・知多郡武豊町/豊石神社境内",
    "date": "日程：2025年7月19日(土)",
    "link": "https://hanabi.walkerplus.com/detail/ar0623e00196/",
    "location": {
      "type": "Point",
      "coordinates": [
        136.924562,
        34.849664
      ]
    }
  },
  {
    "name": "伊勢市制施行20周年記念 第73回 伊勢神宮奉納全国花火大会",
    "area": "三重県・伊勢市/三重県伊勢市　宮川河畔(度会橋上流)",
    "date": "日程：2025年7月19日(土)",
    "link": "https://hanabi.walkerplus.com/detail/ar0624e00804/",
    "location": {
      "type": "Point",
      "coordinates": [
        136.681368,
        34.482993
      ]
    }
  },
  {
    "name": "第141回 愛知川祇園納涼祭花火大会",
    "area": "滋賀県・東近江市/愛知川河川敷御幸橋付近",
    "date": "日程：2025年7月19日(土)",
    "link": "https://hanabi.walkerplus.com/detail/ar0725e00768/",
    "location": {
      "type": "Point",
      "coordinates": [
        136.20094,
        35.16167
      ]
    }
  },
  {
    "name": "若桜町納涼花火大会・土用縁日",
    "area": "鳥取県・八頭郡若桜町/若桜駅前広場",
    "date": "日程：2025年7月19日(土)",
    "link": "https://hanabi.walkerplus.com/detail/ar0831e00378/",
    "location": {
      "type": "Point",
      "coordinates": [
        134.398559,
        35.345005
      ]
    }
  },
  {
    "name": "2025 岡山国際サーキット花火大会 produced by 磯谷煙火店",
    "area": "岡山県・美作市/岡山国際サーキット",
    "date": "日程：2025年7月19日(土)",
    "link": "https://hanabi.walkerplus.com/detail/ar0833e508668/",
    "location": {
      "type": "Point",
      "coordinates": [
        134.221602,
        34.9153
      ]
    }
  },
  {
    "name": "第76回 呉の夏まつり「海上花火大会」",
    "area": "広島県・呉市/呉港湾内",
    "date": "日程：2025年7月19日(土)",
    "link": "https://hanabi.walkerplus.com/detail/ar0834e01005/",
    "location": {
      "type": "Point",
      "coordinates": [
        132.543777,
        34.240377
      ]
    }
  },
  {
    "name": "ながと花火大会",
    "area": "山口県・長門市/湊魚市場",
    "date": "日程：2025年7月19日(土)",
    "link": "https://hanabi.walkerplus.com/detail/ar0835e00950/",
    "location": {
      "type": "Point",
      "coordinates": [
        131.181435,
        34.377784
      ]
    }
  },
  {
    "name": "かわのえ夏まつり花火大会",
    "area": "愛媛県・四国中央市/川之江港防波堤",
    "date": "日程：2025年7月19日(土)",
    "link": "https://hanabi.walkerplus.com/detail/ar0938e00703/",
    "location": {
      "type": "Point",
      "coordinates": [
        133.570429,
        34.021403
      ]
    }
  },
  {
    "name": "やいとがわ納涼祭",
    "area": "高知県・宿毛市/ケアハウスすくも 職員駐車場",
    "date": "日程：2025年7月19日(土)",
    "link": "https://hanabi.walkerplus.com/detail/ar0939e00621/",
    "location": {
      "type": "Point",
      "coordinates": [
        132.80021,
        32.959774
      ]
    }
  },
  {
    "name": "第37回苓北じゃっと祭 花火大会",
    "area": "熊本県・天草郡苓北町/富岡港船客待合所横防波堤",
    "date": "日程：2025年7月19日(土)",
    "link": "https://hanabi.walkerplus.com/detail/ar1043e00368/",
    "location": {
      "type": "Point",
      "coordinates": [
        130.036016,
        32.522854
      ]
    }
  },
  {
    "name": "油津港まつり2025花火大会",
    "area": "宮崎県・日南市/油津港周辺",
    "date": "日程：2025年7月19日(土)",
    "link": "https://hanabi.walkerplus.com/detail/ar1045e00335/",
    "location": {
      "type": "Point",
      "coordinates": [
        131.399754,
        31.575152
      ]
    }
  },
  {
    "name": "えびの京町温泉夏祭り花火大会",
    "area": "宮崎県・えびの市/京町温泉郷川内川河川敷",
    "date": "日程：2025年7月19日(土)",
    "link": "https://hanabi.walkerplus.com/detail/ar1045e00566/",
    "location": {
      "type": "Point",
      "coordinates": [
        130.761124,
        32.05082
      ]
    }
  },
  {
    "name": "第61回 南房総白浜海女まつり",
    "area": "千葉県・南房総市/白浜野島埼灯台前公園広場",
    "date": "日程：2025年7月19日(土)・20日(日)まるグルは7月19日(土)～7月21日(祝)",
    "link": "https://hanabi.walkerplus.com/detail/ar0312e00472/",
    "location": {
      "type": "Point",
      "coordinates": [
        139.886924,
        34.901604
      ]
    }
  },
  {
    "name": "Retra！水都祭2025",
    "area": "徳島県・徳島市/藍場浜公園",
    "date": "日程：2025年7月19日(土)・20日(日)Retra！水都祭2025は7月18日(金)～20日(日)",
    "link": "https://hanabi.walkerplus.com/detail/ar0936e151820/",
    "location": {
      "type": "Point",
      "coordinates": [
        134.548374,
        34.072549
      ]
    }
  },
  {
    "name": "乾杯の夕べ2025",
    "area": "京都府・京都市左京区/京都宝ヶ池・国立京都国際会館",
    "date": "日程：2025年7月19日(土)、20日(日)、21日(祝)",
    "link": "https://hanabi.walkerplus.com/detail/ar0726e357471/",
    "location": {
      "type": "Point",
      "coordinates": [
        135.783131,
        35.061714
      ]
    }
  },
  {
    "name": "海の京都 みやづBAY花火2025",
    "area": "京都府・宮津市/京都府宮津市字文珠天橋公園内",
    "date": "日程：2025年7月19日(土)・24日(木)・26日(土)、8月2日(土)・9日(土)7月19日(土)・24(木)・8月2日(土)は文珠、26日(土)は文珠・由良、8月9日(土)は宮津・文珠・府中で打ち上げ",
    "link": "https://hanabi.walkerplus.com/detail/ar0726e354766/",
    "location": {
      "type": "Point",
      "coordinates": [
        135.186775,
        35.562349
      ]
    }
  },
  {
    "name": "MARINES HANABI (マリーンズ花火)",
    "area": "千葉県・千葉市美浜区/ZOZOマリンスタジアム",
    "date": "日程：2025年7月11日(金)～8月11日(祝)の特定日7月11日(金)～13日(日)・18日(金)～21日(祝)・29日(火)・30日(水)・8月5日(火)～7日(木)・9日(土)～11日(祝)に実施",
    "link": "https://hanabi.walkerplus.com/detail/ar0312e01090/",
    "location": {
      "type": "Point",
      "coordinates": [
        140.029152,
        35.644236
      ]
    }
  },
  {
    "name": "花火ファンタジア～奇跡のオーロラショー×花火ファンタジア～",
    "area": "香川県・丸亀市/レオマリゾート",
    "date": "日程：2025年7月19日(土)・20(日)・8月10日(日)～8月16日(土)",
    "link": "https://hanabi.walkerplus.com/detail/ar0937e109563/",
    "location": {
      "type": "Point",
      "coordinates": [
        133.878091,
        34.212977
      ]
    }
  },
  {
    "name": "Gotemba Night!! 2025 (ゴテンバナイト!!2025)",
    "area": "静岡県・御殿場市/御殿場プレミアム・アウトレット",
    "date": "日程：2025年7月19日(土)・26日(土)、8月2日(土)・9日(土)・16日(土)・23日(土)",
    "link": "https://hanabi.walkerplus.com/detail/ar0622e440974/",
    "location": {
      "type": "Point",
      "coordinates": [
        138.964675,
        35.307384
      ]
    }
  },
  {
    "name": "ムーミン谷の湖上花火大会～夏～",
    "area": "埼玉県・飯能市/ムーミンバレーパーク",
    "date": "日程：2025/7/5日(土)、12日(土)、19日(土)～21日(月)、26日(土)～8/24日(日)2025年8月9日(土)は19:40～20:00「～ムーミンの日記念～花火大会」のスペシャルバージョン",
    "link": "https://hanabi.walkerplus.com/detail/ar0311e516645/",
    "location": {
      "type": "Point",
      "coordinates": [
        139.327329,
        35.87098
      ]
    }
  },
  {
    "name": "第27回 阿字ヶ浦海岸花火大会",
    "area": "茨城県・ひたちなか市/阿字ヶ浦海岸",
    "date": "日程：2025年7/12(土)、7/19日(土)、7/26(土)、8/2(土)、8/13(水)、8/23(土)、8/30(土)",
    "link": "https://hanabi.walkerplus.com/detail/ar0308e00258/",
    "location": {
      "type": "Point",
      "coordinates": [
        140.62245,
        36.386798
      ]
    }
  },
  {
    "name": "神戸港ウィークエンド花火",
    "area": "兵庫県・神戸市中央区/メリケンパーク",
    "date": "日程：通年年間を通じて原則、第1・3土曜日に実施。8月は夏休み企画として、毎週金曜と土曜に実施",
    "link": "https://hanabi.walkerplus.com/detail/ar0728e520588/",
    "location": {
      "type": "Point",
      "coordinates": [
        135.188677,
        34.682298
      ]
    }
  },
  {
    "name": "南紀白浜温泉 2025年メッセージ花火",
    "area": "和歌山県・西牟婁郡白浜町/白良浜海岸",
    "date": "日程：2025年7月12日(土)・19日(土)・26日(土)、8月2日(土)・9日(土)・16日(土)・23日(土)・30日(土)",
    "link": "https://hanabi.walkerplus.com/detail/ar0730e356982/",
    "location": {
      "type": "Point",
      "coordinates": [
        135.342883,
        33.680475
      ]
    }
  },
  {
    "name": "夏休み！ 神宮花火ナイター",
    "area": "東京都・新宿区/明治神宮野球場",
    "date": "日程：2025/7/19～21・26・27・8/1～3・11～13・19～24・29～317/19～21・8/29～31 広島戦、7/26～27 中日戦、8/1～3・8/22～24 阪神戦、8/11～13 横浜DeNA戦、8/19～21 巨人戦、※全20試合",
    "link": "https://hanabi.walkerplus.com/detail/ar0313e01074/",
    "location": {
      "type": "Point",
      "coordinates": [
        139.717035,
        35.674528
      ]
    }
  },
  {
    "name": "横浜・八景島シーパラダイス「花火シンフォニア」",
    "area": "神奈川県・横浜市金沢区/横浜・八景島シーパラダイス",
    "date": "日程：7/19(土)・20(日)・26(土)、8/2(土)・9(土)・10(日)・16(土)・23(土)、9/13(土)・14(日)※※2025年8月9日(土)・10日(日)・16(土)・23(土)、9/13(土)・14(日)の花火大会は中止となりました",
    "link": "https://hanabi.walkerplus.com/detail/ar0314e01077/",
    "location": {
      "type": "Point",
      "coordinates": [
        139.64954,
        35.336693
      ]
    }
  },
  {
    "name": "ハウステンボス サマーナイト花火",
    "area": "長崎県・佐世保市/ハウステンボス",
    "date": "日程：2025年7月19日土)～9月14日(日)の土日祝、8月11日(祝)～15日(金)",
    "link": "https://hanabi.walkerplus.com/detail/ar1042e72221/",
    "location": {
      "type": "Point",
      "coordinates": [
        129.786913,
        33.080851
      ]
    }
  },
  {
    "name": "西武園ゆうえんち大火祭り",
    "area": "埼玉県・所沢市/西武園ゆうえんち",
    "date": "日程：2025年7月19日(土)～9月15日(祝)の土日祝、8月11日(祝)～8月15日(金)※2025年8月9日(土)～9月15日(祝)の花火演出は中止となりました",
    "link": "https://hanabi.walkerplus.com/detail/ar0311e00439/",
    "location": {
      "type": "Point",
      "coordinates": [
        139.442767,
        35.768364
      ]
    }
  },
  {
    "name": "メッツァの北欧花火2025",
    "area": "埼玉県・飯能市/メッツァ(メッツァビレッジ・ムーミンバレーパーク)",
    "date": "日程：2025/7/12(土)・19(土)・20(日)・26(土)、8/2(土)・10(日)～12(火)・16(土)9/13(土)・14(日)・20(土)・21(日)",
    "link": "https://hanabi.walkerplus.com/detail/ar0311e471906/",
    "location": {
      "type": "Point",
      "coordinates": [
        139.332957,
        35.871121
      ]
    }
  },
  {
    "name": "姫祭夏花火2025",
    "area": "兵庫県・姫路市/姫路セントラルパーク",
    "date": "日程：2025年7月19日(土)～9月28日(日)の土日祝、および8月12日(火)～15日(金)",
    "link": "https://hanabi.walkerplus.com/detail/ar0728e00594/",
    "location": {
      "type": "Point",
      "coordinates": [
        134.76434,
        34.871048
      ]
    }
  },
  {
    "name": "第44回 洞爺湖ロングラン花火大会",
    "area": "北海道・虻田郡洞爺湖町/洞爺湖温泉湖畔",
    "date": "日程：2025年4月28日(月)～10月31日(金)",
    "link": "https://hanabi.walkerplus.com/detail/ar0101e66092/",
    "location": {
      "type": "Point",
      "coordinates": [
        140.823043,
        42.566346
      ]
    }
  },
  {
    "name": "第26回 函館新聞社函館港花火大会",
    "area": "北海道・函館市/緑の島",
    "date": "日程：2025年7月20日(日)",
    "link": "https://hanabi.walkerplus.com/detail/ar0101e00720/",
    "location": {
      "type": "Point",
      "coordinates": [
        140.715049,
        41.771787
      ]
    }
  },
  {
    "name": "まくべつ夏フェスタ2025",
    "area": "北海道・中川郡幕別町/幕別町運動公園 特設会場",
    "date": "日程：2025年7月20日(日)",
    "link": "https://hanabi.walkerplus.com/detail/ar0101e00726/",
    "location": {
      "type": "Point",
      "coordinates": [
        143.347239,
        42.904798
      ]
    }
  },
  {
    "name": "第78回 塩竈みなと祭前夜祭花火大会",
    "area": "宮城県・塩竈市/塩釜港周辺",
    "date": "日程：2025年7月20日(日)",
    "link": "https://hanabi.walkerplus.com/detail/ar0204e00649/",
    "location": {
      "type": "Point",
      "coordinates": [
        141.041229,
        38.321154
      ]
    }
  },
  {
    "name": "もとみや みずいろ花火",
    "area": "福島県・本宮市/阿武隈川河川敷",
    "date": "日程：2025年7月20日(日)",
    "link": "https://hanabi.walkerplus.com/detail/ar0207e196360/",
    "location": {
      "type": "Point",
      "coordinates": [
        140.403538,
        37.513013
      ]
    }
  },
  {
    "name": "第61回 南房総白浜海女まつり",
    "area": "千葉県・南房総市/白浜野島埼灯台前公園広場",
    "date": "日程：2025年7月19日(土)・20日(日)まるグルは7月19日(土)～7月21日(祝)",
    "link": "https://hanabi.walkerplus.com/detail/ar0312e00472/",
    "location": {
      "type": "Point",
      "coordinates": [
        139.886924,
        34.901604
      ]
    }
  },
  {
    "name": "ふるさと龍宮まつり海上花火大会",
    "area": "富山県・滑川市/富山湾(ほたるいかミュージアム周辺)",
    "date": "日程：2025年7月20日(日)ふるさと龍宮まつりは2025年7月19日(土)～20日(日)",
    "link": "https://hanabi.walkerplus.com/detail/ar0516e01049/",
    "location": {
      "type": "Point",
      "coordinates": [
        137.342791,
        36.774402
      ]
    }
  },
  {
    "name": "第38回須坂みんなの花火大会",
    "area": "長野県・須坂市/百々川緑地公園",
    "date": "日程：2025年7月20日(日)",
    "link": "https://hanabi.walkerplus.com/detail/ar0420e467527/",
    "location": {
      "type": "Point",
      "coordinates": [
        138.314553,
        36.639122
      ]
    }
  },
  {
    "name": "戸倉上山田温泉夏祭りと煙火大会",
    "area": "長野県・千曲市/戸倉上山田温泉",
    "date": "日程：2025年7月20日(日)戸倉上山田温泉夏祭りは7月19日(土)・20日(日)",
    "link": "https://hanabi.walkerplus.com/detail/ar0420e00683/",
    "location": {
      "type": "Point",
      "coordinates": [
        138.143328,
        36.480939
      ]
    }
  },
  {
    "name": "伊賀市市民花火大会",
    "area": "三重県・伊賀市/上野運動公園",
    "date": "日程：2025年7月20日(日)",
    "link": "https://hanabi.walkerplus.com/detail/ar0624e00349/",
    "location": {
      "type": "Point",
      "coordinates": [
        136.129016,
        34.779001
      ]
    }
  },
  {
    "name": "浜坂ふるさと夏祭り 花火大会",
    "area": "兵庫県・美方郡新温泉町/浜坂県民サンビーチ",
    "date": "日程：2025年7月20日(日)",
    "link": "https://hanabi.walkerplus.com/detail/ar0728e00427/",
    "location": {
      "type": "Point",
      "coordinates": [
        134.44725,
        35.628716
      ]
    }
  },
  {
    "name": "きすき夏まつり",
    "area": "島根県・雲南市/斐伊川河川敷",
    "date": "日程：2025年7月20日(日)(予定)",
    "link": "https://hanabi.walkerplus.com/detail/ar0832e00094/",
    "location": {
      "type": "Point",
      "coordinates": [
        132.896819,
        35.290866
      ]
    }
  },
  {
    "name": "Retra！水都祭2025",
    "area": "徳島県・徳島市/藍場浜公園",
    "date": "日程：2025年7月19日(土)・20日(日)Retra！水都祭2025は7月18日(金)～20日(日)",
    "link": "https://hanabi.walkerplus.com/detail/ar0936e151820/",
    "location": {
      "type": "Point",
      "coordinates": [
        134.548374,
        34.072549
      ]
    }
  },
  {
    "name": "乾杯の夕べ2025",
    "area": "京都府・京都市左京区/京都宝ヶ池・国立京都国際会館",
    "date": "日程：2025年7月19日(土)、20日(日)、21日(祝)",
    "link": "https://hanabi.walkerplus.com/detail/ar0726e357471/",
    "location": {
      "type": "Point",
      "coordinates": [
        135.783131,
        35.061714
      ]
    }
  },
  {
    "name": "MARINES HANABI (マリーンズ花火)",
    "area": "千葉県・千葉市美浜区/ZOZOマリンスタジアム",
    "date": "日程：2025年7月11日(金)～8月11日(祝)の特定日7月11日(金)～13日(日)・18日(金)～21日(祝)・29日(火)・30日(水)・8月5日(火)～7日(木)・9日(土)～11日(祝)に実施",
    "link": "https://hanabi.walkerplus.com/detail/ar0312e01090/",
    "location": {
      "type": "Point",
      "coordinates": [
        140.029152,
        35.644236
      ]
    }
  },
  {
    "name": "花火ファンタジア～奇跡のオーロラショー×花火ファンタジア～",
    "area": "香川県・丸亀市/レオマリゾート",
    "date": "日程：2025年7月19日(土)・20(日)・8月10日(日)～8月16日(土)",
    "link": "https://hanabi.walkerplus.com/detail/ar0937e109563/",
    "location": {
      "type": "Point",
      "coordinates": [
        133.878091,
        34.212977
      ]
    }
  },
  {
    "name": "石和温泉鵜飼花火",
    "area": "山梨県・笛吹市/笛吹市役所本館前笛吹川河川敷",
    "date": "日程：2025年7月20日(日)～8月17日(日)の水・木・土・日7/20・23・24・26・27・30・31・8/2・3・6・7・9・10・13・14・16・17開催(計17日開催)",
    "link": "https://hanabi.walkerplus.com/detail/ar0419e467624/",
    "location": {
      "type": "Point",
      "coordinates": [
        138.641974,
        35.647044
      ]
    }
  },
  {
    "name": "SHIRAHAMA2025花火ラリー",
    "area": "和歌山県・西牟婁郡白浜町/白良浜海水浴場",
    "date": "日程：2025年7月20日(日)・27日(日)、8月3日(日)、17日(日)",
    "link": "https://hanabi.walkerplus.com/detail/ar0730e00774/",
    "location": {
      "type": "Point",
      "coordinates": [
        135.343537,
        33.681723
      ]
    }
  },
  {
    "name": "ムーミン谷の湖上花火大会～夏～",
    "area": "埼玉県・飯能市/ムーミンバレーパーク",
    "date": "日程：2025/7/5日(土)、12日(土)、19日(土)～21日(月)、26日(土)～8/24日(日)2025年8月9日(土)は19:40～20:00「～ムーミンの日記念～花火大会」のスペシャルバージョン",
    "link": "https://hanabi.walkerplus.com/detail/ar0311e516645/",
    "location": {
      "type": "Point",
      "coordinates": [
        139.327329,
        35.87098
      ]
    }
  },
  {
    "name": "夏休み！ 神宮花火ナイター",
    "area": "東京都・新宿区/明治神宮野球場",
    "date": "日程：2025/7/19～21・26・27・8/1～3・11～13・19～24・29～317/19～21・8/29～31 広島戦、7/26～27 中日戦、8/1～3・8/22～24 阪神戦、8/11～13 横浜DeNA戦、8/19～21 巨人戦、※全20試合",
    "link": "https://hanabi.walkerplus.com/detail/ar0313e01074/",
    "location": {
      "type": "Point",
      "coordinates": [
        139.717035,
        35.674528
      ]
    }
  },
  {
    "name": "横浜・八景島シーパラダイス「花火シンフォニア」",
    "area": "神奈川県・横浜市金沢区/横浜・八景島シーパラダイス",
    "date": "日程：7/19(土)・20(日)・26(土)、8/2(土)・9(土)・10(日)・16(土)・23(土)、9/13(土)・14(日)※※2025年8月9日(土)・10日(日)・16(土)・23(土)、9/13(土)・14(日)の花火大会は中止となりました",
    "link": "https://hanabi.walkerplus.com/detail/ar0314e01077/",
    "location": {
      "type": "Point",
      "coordinates": [
        139.64954,
        35.336693
      ]
    }
  },
  {
    "name": "ハウステンボス サマーナイト花火",
    "area": "長崎県・佐世保市/ハウステンボス",
    "date": "日程：2025年7月19日土)～9月14日(日)の土日祝、8月11日(祝)～15日(金)",
    "link": "https://hanabi.walkerplus.com/detail/ar1042e72221/",
    "location": {
      "type": "Point",
      "coordinates": [
        129.786913,
        33.080851
      ]
    }
  },
  {
    "name": "西武園ゆうえんち大火祭り",
    "area": "埼玉県・所沢市/西武園ゆうえんち",
    "date": "日程：2025年7月19日(土)～9月15日(祝)の土日祝、8月11日(祝)～8月15日(金)※2025年8月9日(土)～9月15日(祝)の花火演出は中止となりました",
    "link": "https://hanabi.walkerplus.com/detail/ar0311e00439/",
    "location": {
      "type": "Point",
      "coordinates": [
        139.442767,
        35.768364
      ]
    }
  },
  {
    "name": "ハーモニーランド Fun×Fan Night Show Give You(ファン×ファン ナイトショウ ギブユー)",
    "area": "大分県・速見郡日出町/サンリオキャラクターパークハーモニーランド",
    "date": "日程：2025年7月20日(日)、8月13日(水)～8月16日(土)、9月13日(土)、14日(日)、20日(土)",
    "link": "https://hanabi.walkerplus.com/detail/ar1044e00958/",
    "location": {
      "type": "Point",
      "coordinates": [
        131.54662,
        33.400644
      ]
    }
  },
  {
    "name": "第31回 りんどう湖花火大会",
    "area": "栃木県・那須郡那須町/那須高原りんどう湖ファミリー牧場",
    "date": "日程：2025/7/20(日)・27(日)、8/2(土)・9(土)～11(祝)・13(水)〜16(土)・23(土)9/14(日)・21(日)　※2025年8月10日(日)、11日(祝)の花火大会は天候不良のため中止となりました",
    "link": "https://hanabi.walkerplus.com/detail/ar0309e00579/",
    "location": {
      "type": "Point",
      "coordinates": [
        140.047258,
        37.041402
      ]
    }
  },
  {
    "name": "メッツァの北欧花火2025",
    "area": "埼玉県・飯能市/メッツァ(メッツァビレッジ・ムーミンバレーパーク)",
    "date": "日程：2025/7/12(土)・19(土)・20(日)・26(土)、8/2(土)・10(日)～12(火)・16(土)9/13(土)・14(日)・20(土)・21(日)",
    "link": "https://hanabi.walkerplus.com/detail/ar0311e471906/",
    "location": {
      "type": "Point",
      "coordinates": [
        139.332957,
        35.871121
      ]
    }
  },
  {
    "name": "姫祭夏花火2025",
    "area": "兵庫県・姫路市/姫路セントラルパーク",
    "date": "日程：2025年7月19日(土)～9月28日(日)の土日祝、および8月12日(火)～15日(金)",
    "link": "https://hanabi.walkerplus.com/detail/ar0728e00594/",
    "location": {
      "type": "Point",
      "coordinates": [
        134.76434,
        34.871048
      ]
    }
  },
  {
    "name": "第44回 洞爺湖ロングラン花火大会",
    "area": "北海道・虻田郡洞爺湖町/洞爺湖温泉湖畔",
    "date": "日程：2025年4月28日(月)～10月31日(金)",
    "link": "https://hanabi.walkerplus.com/detail/ar0101e66092/",
    "location": {
      "type": "Point",
      "coordinates": [
        140.823043,
        42.566346
      ]
    }
  },
  {
    "name": "スターライトイリュージョン2025",
    "area": "和歌山県・和歌山市/和歌山マリーナシティ 西側防波堤",
    "date": "日程：2025/7/20(日)、8/13(水)～16(土)・23(土)、9/14日(日)、10/12(日)、11/2(日)(予定)",
    "link": "https://hanabi.walkerplus.com/detail/ar0730e01013/",
    "location": {
      "type": "Point",
      "coordinates": [
        135.173024,
        34.15191
      ]
    }
  },
  {
    "name": "第52回 裏磐梯火の山まつり",
    "area": "福島県・耶麻郡北塩原村/桧原湖上",
    "date": "日程：2025年7月21日(祝)",
    "link": "https://hanabi.walkerplus.com/detail/ar0207e00397/",
    "location": {
      "type": "Point",
      "coordinates": [
        140.059321,
        37.65583
      ]
    }
  },
  {
    "name": "第79回 海の日名古屋みなと祭花火大会",
    "area": "愛知県・名古屋市港区/名古屋港ガーデンふ頭一帯",
    "date": "日程：2025年7月21日(祝)",
    "link": "https://hanabi.walkerplus.com/detail/ar0623e00795/",
    "location": {
      "type": "Point",
      "coordinates": [
        136.882021,
        35.088328
      ]
    }
  },
  {
    "name": "乾杯の夕べ2025",
    "area": "京都府・京都市左京区/京都宝ヶ池・国立京都国際会館",
    "date": "日程：2025年7月19日(土)、20日(日)、21日(祝)",
    "link": "https://hanabi.walkerplus.com/detail/ar0726e357471/",
    "location": {
      "type": "Point",
      "coordinates": [
        135.783131,
        35.061714
      ]
    }
  },
  {
    "name": "新宮納涼ふれあいまつり＆花火大会",
    "area": "兵庫県・たつの市/新宮宮内遺跡公園周辺",
    "date": "日程：2025年7月21日(祝)",
    "link": "https://hanabi.walkerplus.com/detail/ar0728e00164/",
    "location": {
      "type": "Point",
      "coordinates": [
        134.546098,
        34.923763
      ]
    }
  },
  {
    "name": "小松島港まつり納涼花火大会",
    "area": "徳島県・小松島市/小松島町新港地区一帯",
    "date": "日程：2025年7月21日(祝)",
    "link": "https://hanabi.walkerplus.com/detail/ar0936e00619/",
    "location": {
      "type": "Point",
      "coordinates": [
        134.592451,
        34.01146
      ]
    }
  },
  {
    "name": "第53回 宮若納涼花火大会",
    "area": "福岡県・宮若市/本城橋下流左岸堤防",
    "date": "日程：2025年7月21日(祝)",
    "link": "https://hanabi.walkerplus.com/detail/ar1040e00287/",
    "location": {
      "type": "Point",
      "coordinates": [
        130.672791,
        33.724708
      ]
    }
  },
  {
    "name": "マリンフェスタinくちのつ 2025",
    "area": "長崎県・南島原市/口之津港緑地公園",
    "date": "日程：2025年7月21日(祝)",
    "link": "https://hanabi.walkerplus.com/detail/ar1042e00968/",
    "location": {
      "type": "Point",
      "coordinates": [
        130.18563,
        32.610277
      ]
    }
  },
  {
    "name": "MARINES HANABI (マリーンズ花火)",
    "area": "千葉県・千葉市美浜区/ZOZOマリンスタジアム",
    "date": "日程：2025年7月11日(金)～8月11日(祝)の特定日7月11日(金)～13日(日)・18日(金)～21日(祝)・29日(火)・30日(水)・8月5日(火)～7日(木)・9日(土)～11日(祝)に実施",
    "link": "https://hanabi.walkerplus.com/detail/ar0312e01090/",
    "location": {
      "type": "Point",
      "coordinates": [
        140.029152,
        35.644236
      ]
    }
  },
  {
    "name": "ムーミン谷の湖上花火大会～夏～",
    "area": "埼玉県・飯能市/ムーミンバレーパーク",
    "date": "日程：2025/7/5日(土)、12日(土)、19日(土)～21日(月)、26日(土)～8/24日(日)2025年8月9日(土)は19:40～20:00「～ムーミンの日記念～花火大会」のスペシャルバージョン",
    "link": "https://hanabi.walkerplus.com/detail/ar0311e516645/",
    "location": {
      "type": "Point",
      "coordinates": [
        139.327329,
        35.87098
      ]
    }
  },
  {
    "name": "滋賀農業公園ブルーメの丘 ミュージック花火大会2025",
    "area": "滋賀県・蒲生郡日野町/滋賀農業公園 ブルーメの丘",
    "date": "日程：2025年7月21日(祝)、8月17日(日)・30日(土)※2025年8月11日(祝)の予定が8月17日(日)に延期となりました",
    "link": "https://hanabi.walkerplus.com/detail/ar0725e387765/",
    "location": {
      "type": "Point",
      "coordinates": [
        136.279599,
        35.014129
      ]
    }
  },
  {
    "name": "夏休み！ 神宮花火ナイター",
    "area": "東京都・新宿区/明治神宮野球場",
    "date": "日程：2025/7/19～21・26・27・8/1～3・11～13・19～24・29～317/19～21・8/29～31 広島戦、7/26～27 中日戦、8/1～3・8/22～24 阪神戦、8/11～13 横浜DeNA戦、8/19～21 巨人戦、※全20試合",
    "link": "https://hanabi.walkerplus.com/detail/ar0313e01074/",
    "location": {
      "type": "Point",
      "coordinates": [
        139.717035,
        35.674528
      ]
    }
  },
  {
    "name": "ハウステンボス サマーナイト花火",
    "area": "長崎県・佐世保市/ハウステンボス",
    "date": "日程：2025年7月19日土)～9月14日(日)の土日祝、8月11日(祝)～15日(金)",
    "link": "https://hanabi.walkerplus.com/detail/ar1042e72221/",
    "location": {
      "type": "Point",
      "coordinates": [
        129.786913,
        33.080851
      ]
    }
  },
  {
    "name": "西武園ゆうえんち大火祭り",
    "area": "埼玉県・所沢市/西武園ゆうえんち",
    "date": "日程：2025年7月19日(土)～9月15日(祝)の土日祝、8月11日(祝)～8月15日(金)※2025年8月9日(土)～9月15日(祝)の花火演出は中止となりました",
    "link": "https://hanabi.walkerplus.com/detail/ar0311e00439/",
    "location": {
      "type": "Point",
      "coordinates": [
        139.442767,
        35.768364
      ]
    }
  },
  {
    "name": "姫祭夏花火2025",
    "area": "兵庫県・姫路市/姫路セントラルパーク",
    "date": "日程：2025年7月19日(土)～9月28日(日)の土日祝、および8月12日(火)～15日(金)",
    "link": "https://hanabi.walkerplus.com/detail/ar0728e00594/",
    "location": {
      "type": "Point",
      "coordinates": [
        134.76434,
        34.871048
      ]
    }
  },
  {
    "name": "第44回 洞爺湖ロングラン花火大会",
    "area": "北海道・虻田郡洞爺湖町/洞爺湖温泉湖畔",
    "date": "日程：2025年4月28日(月)～10月31日(金)",
    "link": "https://hanabi.walkerplus.com/detail/ar0101e66092/",
    "location": {
      "type": "Point",
      "coordinates": [
        140.823043,
        42.566346
      ]
    }
  },
  {
    "name": "第59回 葛飾納涼花火大会",
    "area": "東京都・葛飾区/葛飾区柴又野球場(江戸川河川敷)",
    "date": "日程：2025年7月22日(火)",
    "link": "https://hanabi.walkerplus.com/detail/ar0313e00861/",
    "location": {
      "type": "Point",
      "coordinates": [
        139.881798,
        35.761832
      ]
    }
  },
  {
    "name": "第59回 うわじま牛鬼まつり海上打上花火",
    "area": "愛媛県・宇和島市/宇和島湾",
    "date": "日程：2025年7月22日(火)うわじま牛鬼まつりは2025年7月22日(火)～24日(木)に開催",
    "link": "https://hanabi.walkerplus.com/detail/ar0938e00115/",
    "location": {
      "type": "Point",
      "coordinates": [
        132.550025,
        33.225124
      ]
    }
  },
  {
    "name": "令和7年度 第39回 シーポートちゃたんカーニバル",
    "area": "沖縄県・中頭郡北谷町/デポアイランド・ボードウォークおよび北谷公園サンセットビーチ",
    "date": "日程：デポアイランド・ボードウォーク 7/22・29、8/5・12・19・26、9/2・9・16・30、10/3・10・17・24北谷公園サンセットビーチ9/21～23。北谷公園サンセットビーチで開催の3日間は、エイサーやフラダンなどの演舞も予定",
    "link": "https://hanabi.walkerplus.com/detail/ar1047e00388/",
    "location": {
      "type": "Point",
      "coordinates": [
        127.753577,
        26.315706
      ]
    }
  },
  {
    "name": "第44回 洞爺湖ロングラン花火大会",
    "area": "北海道・虻田郡洞爺湖町/洞爺湖温泉湖畔",
    "date": "日程：2025年4月28日(月)～10月31日(金)",
    "link": "https://hanabi.walkerplus.com/detail/ar0101e66092/",
    "location": {
      "type": "Point",
      "coordinates": [
        140.823043,
        42.566346
      ]
    }
  },
  {
    "name": "令和7年度入間基地納涼祭～盆踊りと花火の夕べ～",
    "area": "埼玉県・狭山市/航空自衛隊入間基地",
    "date": "日程：2025年7月23日(水)",
    "link": "https://hanabi.walkerplus.com/detail/ar0311e01021/",
    "location": {
      "type": "Point",
      "coordinates": [
        139.397474,
        35.840023
      ]
    }
  },
  {
    "name": "愛宕山花火祭大会",
    "area": "岐阜県・郡上市/岐阜県郡上市美並町白山地内",
    "date": "日程：2025年7月23日(水)",
    "link": "https://hanabi.walkerplus.com/detail/ar0621e00198/",
    "location": {
      "type": "Point",
      "coordinates": [
        136.955671,
        35.657139
      ]
    }
  },
  {
    "name": "第40回 日本平まつり",
    "area": "静岡県・静岡市清水区/日本平ホテル野外庭園",
    "date": "日程：2025年7月23日(水)",
    "link": "https://hanabi.walkerplus.com/detail/ar0622e00882/",
    "location": {
      "type": "Point",
      "coordinates": [
        138.465452,
        34.981923
      ]
    }
  },
  {
    "name": "石和温泉鵜飼花火",
    "area": "山梨県・笛吹市/笛吹市役所本館前笛吹川河川敷",
    "date": "日程：2025年7月20日(日)～8月17日(日)の水・木・土・日7/20・23・24・26・27・30・31・8/2・3・6・7・9・10・13・14・16・17開催(計17日開催)",
    "link": "https://hanabi.walkerplus.com/detail/ar0419e467624/",
    "location": {
      "type": "Point",
      "coordinates": [
        138.641974,
        35.647044
      ]
    }
  },
  {
    "name": "第44回 洞爺湖ロングラン花火大会",
    "area": "北海道・虻田郡洞爺湖町/洞爺湖温泉湖畔",
    "date": "日程：2025年4月28日(月)～10月31日(金)",
    "link": "https://hanabi.walkerplus.com/detail/ar0101e66092/",
    "location": {
      "type": "Point",
      "coordinates": [
        140.823043,
        42.566346
      ]
    }
  },
  {
    "name": "第58回 堂ヶ島火祭り",
    "area": "静岡県・賀茂郡西伊豆町/賀茂郡西伊豆町仁科　堂ヶ島公園",
    "date": "日程：2025年7月24日(木)",
    "link": "https://hanabi.walkerplus.com/detail/ar0622e07620/",
    "location": {
      "type": "Point",
      "coordinates": [
        138.766431,
        34.781178
      ]
    }
  },
  {
    "name": "第23回 大津志賀花火大会",
    "area": "滋賀県・大津市/近江舞子中浜水泳場一帯",
    "date": "日程：2025年7月24日(木)",
    "link": "https://hanabi.walkerplus.com/detail/ar0725e00471/",
    "location": {
      "type": "Point",
      "coordinates": [
        135.965457,
        35.231754
      ]
    }
  },
  {
    "name": "海の京都 みやづBAY花火2025",
    "area": "京都府・宮津市/京都府宮津市字文珠天橋公園内",
    "date": "日程：2025年7月19日(土)・24日(木)・26日(土)、8月2日(土)・9日(土)7月19日(土)・24(木)・8月2日(土)は文珠、26日(土)は文珠・由良、8月9日(土)は宮津・文珠・府中で打ち上げ",
    "link": "https://hanabi.walkerplus.com/detail/ar0726e354766/",
    "location": {
      "type": "Point",
      "coordinates": [
        135.186775,
        35.562349
      ]
    }
  },
  {
    "name": "石和温泉鵜飼花火",
    "area": "山梨県・笛吹市/笛吹市役所本館前笛吹川河川敷",
    "date": "日程：2025年7月20日(日)～8月17日(日)の水・木・土・日7/20・23・24・26・27・30・31・8/2・3・6・7・9・10・13・14・16・17開催(計17日開催)",
    "link": "https://hanabi.walkerplus.com/detail/ar0419e467624/",
    "location": {
      "type": "Point",
      "coordinates": [
        138.641974,
        35.647044
      ]
    }
  },
  {
    "name": "地獄の谷の鬼花火",
    "area": "北海道・登別市/登別温泉 地獄谷展望台",
    "date": "日程：2025年6月1日(日)、6月2日～6月30日の月曜・木曜、および7月3日～31日・9月4日～25日の木曜2025年6月1日(日)オープニング、9月25日(木)ファイナル  ※2025年7月31日(木)の花火大会は津波警報発令に伴い中止となりました",
    "link": "https://hanabi.walkerplus.com/detail/ar0101e00610/",
    "location": {
      "type": "Point",
      "coordinates": [
        141.146416,
        42.497392
      ]
    }
  },
  {
    "name": "第44回 洞爺湖ロングラン花火大会",
    "area": "北海道・虻田郡洞爺湖町/洞爺湖温泉湖畔",
    "date": "日程：2025年4月28日(月)～10月31日(金)",
    "link": "https://hanabi.walkerplus.com/detail/ar0101e66092/",
    "location": {
      "type": "Point",
      "coordinates": [
        140.823043,
        42.566346
      ]
    }
  },
  {
    "name": "第79回 むろらん港まつり 納涼花火大会",
    "area": "北海道・室蘭市/室蘭中央埠頭",
    "date": "日程：2025年7月25日(金)",
    "link": "https://hanabi.walkerplus.com/detail/ar0101e00715/",
    "location": {
      "type": "Point",
      "coordinates": [
        140.97257,
        42.325597
      ]
    }
  },
  {
    "name": "弥彦燈籠まつり 奉納花火大会",
    "area": "新潟県・西蒲原郡弥彦村/弥彦公園",
    "date": "日程：2025年7月25日(金)",
    "link": "https://hanabi.walkerplus.com/detail/ar0415e01054/",
    "location": {
      "type": "Point",
      "coordinates": [
        138.82871,
        37.698292
      ]
    }
  },
  {
    "name": "中村公園夏まつり 納涼花火鑑賞会",
    "area": "愛知県・名古屋市中村区/中村公園",
    "date": "日程：2025年7月25日(金)",
    "link": "https://hanabi.walkerplus.com/detail/ar0623e508461/",
    "location": {
      "type": "Point",
      "coordinates": [
        136.854522,
        35.173703
      ]
    }
  },
  {
    "name": "第70回鳥羽みなとまつり",
    "area": "三重県・鳥羽市/鳥羽湾上",
    "date": "日程：2025年7月25日(金)",
    "link": "https://hanabi.walkerplus.com/detail/ar0624e00805/",
    "location": {
      "type": "Point",
      "coordinates": [
        136.846228,
        34.487253
      ]
    }
  },
  {
    "name": "潮かけ祭り花火大会",
    "area": "三重県・志摩市/和具漁港堤防",
    "date": "日程：2025年7月25日(金)",
    "link": "https://hanabi.walkerplus.com/detail/ar0624e00452/",
    "location": {
      "type": "Point",
      "coordinates": [
        136.803824,
        34.25435
      ]
    }
  },
  {
    "name": "天神祭奉納花火",
    "area": "大阪府・大阪市北区/川崎公園・桜之宮公園",
    "date": "日程：2025年7月25日(金)",
    "link": "https://hanabi.walkerplus.com/detail/ar0727e00977/",
    "location": {
      "type": "Point",
      "coordinates": [
        135.522112,
        34.701187
      ]
    }
  },
  {
    "name": "厚狭花火大会",
    "area": "山口県・山陽小野田市/厚狭川河畔",
    "date": "日程：2025年7月25日(金)",
    "link": "https://hanabi.walkerplus.com/detail/ar0835e510830/",
    "location": {
      "type": "Point",
      "coordinates": [
        131.169235,
        34.056484
      ]
    }
  },
  {
    "name": "第68回 にいはま納涼花火大会",
    "area": "愛媛県・新居浜市/国領川河川敷平形橋北側",
    "date": "日程：2025年7月25日(金)",
    "link": "https://hanabi.walkerplus.com/detail/ar0938e00626/",
    "location": {
      "type": "Point",
      "coordinates": [
        133.292324,
        33.966251
      ]
    }
  },
  {
    "name": "浜玉町 花火大会",
    "area": "佐賀県・唐津市/浜崎海岸",
    "date": "日程：2025年7月25日(金)",
    "link": "https://hanabi.walkerplus.com/detail/ar1041e00555/",
    "location": {
      "type": "Point",
      "coordinates": [
        130.036394,
        33.452381
      ]
    }
  },
  {
    "name": "諫早万灯川まつり",
    "area": "長崎県・諫早市/公園橋下河川敷",
    "date": "日程：2025年7月25日(金)",
    "link": "https://hanabi.walkerplus.com/detail/ar1042e01036/",
    "location": {
      "type": "Point",
      "coordinates": [
        130.050408,
        32.845873
      ]
    }
  },
  {
    "name": "中津祇園市民花火大会",
    "area": "大分県・中津市/中津市小祝漁港",
    "date": "日程：2025年7月25日(金)",
    "link": "https://hanabi.walkerplus.com/detail/ar1044e00964/",
    "location": {
      "type": "Point",
      "coordinates": [
        131.194429,
        33.617604
      ]
    }
  },
  {
    "name": "サマーフェスティバルin錦江",
    "area": "鹿児島県・肝属郡錦江町/田代中央運動公園",
    "date": "日程：2025年7月25日(金)※2025年7月25日(金)の花火大会は中止となりました",
    "link": "https://hanabi.walkerplus.com/detail/ar1046e00330/",
    "location": {
      "type": "Point",
      "coordinates": [
        130.842845,
        31.200186
      ]
    }
  },
  {
    "name": "諏訪湖サマーナイト花火",
    "area": "長野県・諏訪市/上諏訪温泉諏訪湖上",
    "date": "日程：2025年7月25日(金)～8月24日(日)※8月15日(木)を除く",
    "link": "https://hanabi.walkerplus.com/detail/ar0420e00847/",
    "location": {
      "type": "Point",
      "coordinates": [
        138.109409,
        36.049463
      ]
    }
  },
  {
    "name": "夏季熱海海上花火大会",
    "area": "静岡県・熱海市/熱海湾(熱海港7.5m岸壁～海釣り施設)",
    "date": "日程：2025年7月25日(金)、8月5日(火)・8日(金)・18日(月)・25日(月)",
    "link": "https://hanabi.walkerplus.com/detail/ar0622e00886/",
    "location": {
      "type": "Point",
      "coordinates": [
        139.08071,
        35.093564
      ]
    }
  },
  {
    "name": "マイアミビーチショー\"夏\"花火",
    "area": "神奈川県・藤沢市/片瀬海岸西浜",
    "date": "日程：2025年7月25日(金)・31日(木)、8月9日(土)・19日(火)、9月6日(土)※2025年7月25日(金)の花火大会は中止となりました",
    "link": "https://hanabi.walkerplus.com/detail/ar0314e00505/",
    "location": {
      "type": "Point",
      "coordinates": [
        139.479113,
        35.307195
      ]
    }
  },
  {
    "name": "第44回 洞爺湖ロングラン花火大会",
    "area": "北海道・虻田郡洞爺湖町/洞爺湖温泉湖畔",
    "date": "日程：2025年4月28日(月)～10月31日(金)",
    "link": "https://hanabi.walkerplus.com/detail/ar0101e66092/",
    "location": {
      "type": "Point",
      "coordinates": [
        140.823043,
        42.566346
      ]
    }
  },
  {
    "name": "JUNGLIA “HANABI”(ジャングリア花火)",
    "area": "沖縄県・国頭郡今帰仁村/JUNGLIA OKINAWA (ジャングリア沖縄)",
    "date": "日程：2025年7月25日(金)～8月8日(金)・18日(月)～31日(日)、9月以降の開催日は公式サイトを参照",
    "link": "https://hanabi.walkerplus.com/detail/ar1047e553126/",
    "location": {
      "type": "Point",
      "coordinates": [
        127.973601,
        26.642217
      ]
    }
  },
  {
    "name": "いわみざわ彩花まつり花火大会2025",
    "area": "北海道・岩見沢市/北海道グリーンランド遊園地",
    "date": "日程：2025年7月26日(土)",
    "link": "https://hanabi.walkerplus.com/detail/ar0101e00993/",
    "location": {
      "type": "Point",
      "coordinates": [
        141.780121,
        43.166027
      ]
    }
  },
  {
    "name": "第77回 あばしりオホーツク夏まつり花火大会「時代を彩る網走花火」",
    "area": "北海道・網走市/西防波堤・帽子岩(網走道の駅流氷街道網走の対岸)",
    "date": "日程：2025年7月26日(土)",
    "link": "https://hanabi.walkerplus.com/detail/ar0101e00756/",
    "location": {
      "type": "Point",
      "coordinates": [
        144.275828,
        44.023287
      ]
    }
  },
  {
    "name": "第71回 もんべつ港まつり オホーツク花火の祭典",
    "area": "北海道・紋別市/紋別港第1ふ頭前",
    "date": "日程：2025年7月26日(土)第71回 もんべつ港まつり オホーツク花火の祭典は7月25日(金)～7月27日(日)",
    "link": "https://hanabi.walkerplus.com/detail/ar0101e00737/",
    "location": {
      "type": "Point",
      "coordinates": [
        143.364598,
        44.352531
      ]
    }
  },
  {
    "name": "2025 ふかがわ夏まつり 花火大会",
    "area": "北海道・深川市/石狩川河川敷グリーンパーク周辺",
    "date": "日程：2025年7月26日(土)",
    "link": "https://hanabi.walkerplus.com/detail/ar0101e00995/",
    "location": {
      "type": "Point",
      "coordinates": [
        142.037121,
        43.708798
      ]
    }
  },
  {
    "name": "第38回 つきがた夏まつり",
    "area": "北海道・樺戸郡月形町/皆楽公園",
    "date": "日程：2025年7月26日(土)",
    "link": "https://hanabi.walkerplus.com/detail/ar0101e00743/",
    "location": {
      "type": "Point",
      "coordinates": [
        141.679641,
        43.339109
      ]
    }
  },
  {
    "name": "第56回 東北町湖水まつり花火大会",
    "area": "青森県・上北郡東北町/小川原公園内湖水浴場",
    "date": "日程：2025年7月26日(土)祭りは7月26日(土)、27日(日)",
    "link": "https://hanabi.walkerplus.com/detail/ar0202e00014/",
    "location": {
      "type": "Point",
      "coordinates": [
        141.284228,
        40.729991
      ]
    }
  },
  {
    "name": "田瀬湖湖水まつり 水・空中花火大会",
    "area": "岩手県・花巻市/田瀬湖花火大会特設会場",
    "date": "日程：2025年7月26日(土)",
    "link": "https://hanabi.walkerplus.com/detail/ar0203e511368/",
    "location": {
      "type": "Point",
      "coordinates": [
        141.326173,
        39.30053
      ]
    }
  },
  {
    "name": "南三陸町志津川湾夏まつり",
    "area": "宮城県・本吉郡南三陸町/志津川仮設魚市場特設会場",
    "date": "日程：2025年7月26日(土)",
    "link": "https://hanabi.walkerplus.com/detail/ar0204e511713/",
    "location": {
      "type": "Point",
      "coordinates": [
        141.456948,
        38.67207
      ]
    }
  },
  {
    "name": "第73回 本荘川まつり花火大会",
    "area": "秋田県・由利本荘市/友水公園(ボートプラザアクアパル前河川敷)",
    "date": "日程：2025年7月26日(土)",
    "link": "https://hanabi.walkerplus.com/detail/ar0205e00036/",
    "location": {
      "type": "Point",
      "coordinates": [
        140.039259,
        39.394188
      ]
    }
  },
  {
    "name": "たざわ湖・龍神まつり たざわ湖花火",
    "area": "秋田県・仙北市/田沢湖",
    "date": "日程：2025年7月26日(土)",
    "link": "https://hanabi.walkerplus.com/detail/ar0205e00340/",
    "location": {
      "type": "Point",
      "coordinates": [
        140.69686,
        39.734527
      ]
    }
  },
  {
    "name": "「サンドクラフト2025inみたね」海上花火ショー",
    "area": "秋田県・山本郡三種町/釜谷浜海水浴場",
    "date": "日程：2025年7月26日(土)",
    "link": "https://hanabi.walkerplus.com/detail/ar0205e511903/",
    "location": {
      "type": "Point",
      "coordinates": [
        139.959612,
        40.097897
      ]
    }
  },
  {
    "name": "第47回 ふくしま花火大会～ふくしま旅の幕開け、光の祝祭～",
    "area": "福島県・福島市/信夫ケ丘緑地",
    "date": "日程：2025年7月26日(土)",
    "link": "https://hanabi.walkerplus.com/detail/ar0207e00660/",
    "location": {
      "type": "Point",
      "coordinates": [
        140.49245,
        37.777866
      ]
    }
  },
  {
    "name": "第65回 水戸黄門まつり 水戸偕楽園花火大会",
    "area": "茨城県・水戸市/千波公園",
    "date": "日程：2025年7月26日(土)",
    "link": "https://hanabi.walkerplus.com/detail/ar0308e00896/",
    "location": {
      "type": "Point",
      "coordinates": [
        140.454187,
        36.370968
      ]
    }
  },
  {
    "name": "第53回 真岡市夏祭大花火大会",
    "area": "栃木県・真岡市/真岡市役所東側五行川沿い",
    "date": "日程：2025年7月26日(土)",
    "link": "https://hanabi.walkerplus.com/detail/ar0309e00887/",
    "location": {
      "type": "Point",
      "coordinates": [
        140.012547,
        36.439054
      ]
    }
  },
  {
    "name": "祇園祭ふるさと茂木夏まつり～笑顔(^_^)を届けるみんなの花火～",
    "area": "栃木県・芳賀郡茂木町/茂木町中心市街地",
    "date": "日程：2025年7月26日(土)",
    "link": "https://hanabi.walkerplus.com/detail/ar0309e511715/",
    "location": {
      "type": "Point",
      "coordinates": [
        140.183382,
        36.532835
      ]
    }
  },
  {
    "name": "第26回 館林手筒花火大会",
    "area": "群馬県・館林市/館林城ゆめひろば",
    "date": "日程：2025年7月26日(土)",
    "link": "https://hanabi.walkerplus.com/detail/ar0310e305052/",
    "location": {
      "type": "Point",
      "coordinates": [
        139.543845,
        36.243575
      ]
    }
  },
  {
    "name": "越谷花火大会",
    "area": "埼玉県・越谷市/越谷市中央市民会館葛西用水中土手",
    "date": "日程：2025年7月26日(土)",
    "link": "https://hanabi.walkerplus.com/detail/ar0311e00901/",
    "location": {
      "type": "Point",
      "coordinates": [
        139.793332,
        35.889323
      ]
    }
  },
  {
    "name": "第77回 小川町七夕まつり花火大会",
    "area": "埼玉県・比企郡小川町/小川町駅周辺",
    "date": "日程：2025年7月26日(土)小川町七夕まつりは7月26日(土)・27日(日)",
    "link": "https://hanabi.walkerplus.com/detail/ar0311e00250/",
    "location": {
      "type": "Point",
      "coordinates": [
        139.260814,
        36.058345
      ]
    }
  },
  {
    "name": "「東京湾口道路建設促進」第10回 富津市民花火大会",
    "area": "千葉県・富津市/富津海水浴場",
    "date": "日程：2025年7月26日(土)",
    "link": "https://hanabi.walkerplus.com/detail/ar0312e00354/",
    "location": {
      "type": "Point",
      "coordinates": [
        139.816967,
        35.302756
      ]
    }
  },
  {
    "name": "山武市サマーカーニバル",
    "area": "千葉県・山武市/蓮沼海浜公園展望塔前広場",
    "date": "日程：2025年7月26日(土)",
    "link": "https://hanabi.walkerplus.com/detail/ar0312e00247/",
    "location": {
      "type": "Point",
      "coordinates": [
        140.501046,
        35.582445
      ]
    }
  },
  {
    "name": "おおあみしらさとの花火",
    "area": "千葉県・大網白里市/白里海水浴場",
    "date": "日程：2025年7月26日(土)",
    "link": "https://hanabi.walkerplus.com/detail/ar0312e00504/",
    "location": {
      "type": "Point",
      "coordinates": [
        140.424297,
        35.48889
      ]
    }
  },
  {
    "name": "第48回 隅田川花火大会",
    "area": "東京都・墨田区/桜橋下流～言問橋上流(第一会場)、駒形橋下流～厩橋上流(第二会場)",
    "date": "日程：2025年7月26日(土)",
    "link": "https://hanabi.walkerplus.com/detail/ar0313e00858/",
    "location": {
      "type": "Point",
      "coordinates": [
        139.805267,
        35.716831
      ]
    }
  },
  {
    "name": "八王子花火大会",
    "area": "東京都・八王子市/富士森公園",
    "date": "日程：2025年7月26日(土)",
    "link": "https://hanabi.walkerplus.com/detail/ar0313e00929/",
    "location": {
      "type": "Point",
      "coordinates": [
        139.321575,
        35.651621
      ]
    }
  },
  {
    "name": "立川まつり 国営昭和記念公園花火大会",
    "area": "東京都・立川市/国営昭和記念公園",
    "date": "日程：2025年7月26日(土)",
    "link": "https://hanabi.walkerplus.com/detail/ar0313e01045/",
    "location": {
      "type": "Point",
      "coordinates": [
        139.397322,
        35.710765
      ]
    }
  },
  {
    "name": "未来へつなぐ川口まつり大花火大会",
    "area": "新潟県・長岡市/魚野川河川敷",
    "date": "日程：2025年7月26日(土)",
    "link": "https://hanabi.walkerplus.com/detail/ar0415e511537/",
    "location": {
      "type": "Point",
      "coordinates": [
        138.856103,
        37.272147
      ]
    }
  },
  {
    "name": "三条市合併20周年記念 第21回 三条夏まつり大花火大会",
    "area": "新潟県・三条市/上須頃堤外地",
    "date": "日程：2025年7月26日(土)",
    "link": "https://hanabi.walkerplus.com/detail/ar0415e00056/",
    "location": {
      "type": "Point",
      "coordinates": [
        138.943972,
        37.632165
      ]
    }
  },
  {
    "name": "ぎおん柏崎まつり 海の大花火大会",
    "area": "新潟県・柏崎市/柏崎市中央海岸・みなとまち海浜公園一帯",
    "date": "日程：2025年7月26日(土)",
    "link": "https://hanabi.walkerplus.com/detail/ar0415e00663/",
    "location": {
      "type": "Point",
      "coordinates": [
        138.546519,
        37.375582
      ]
    }
  },
  {
    "name": "糸魚川大花火大会",
    "area": "新潟県・糸魚川市/青海シーサイドパーク",
    "date": "日程：2025年7月26日(土)",
    "link": "https://hanabi.walkerplus.com/detail/ar0415e00055/",
    "location": {
      "type": "Point",
      "coordinates": [
        137.823593,
        37.035293
      ]
    }
  },
  {
    "name": "上越まつり大花火大会(直江津地区)",
    "area": "新潟県・上越市/関川河口",
    "date": "日程：2025年7月26日(土)",
    "link": "https://hanabi.walkerplus.com/detail/ar0415e00664/",
    "location": {
      "type": "Point",
      "coordinates": [
        138.244809,
        37.182578
      ]
    }
  },
  {
    "name": "水橋橋まつり",
    "area": "富山県・富山市/白岩川河畔",
    "date": "日程：2025年7月26日(土)",
    "link": "https://hanabi.walkerplus.com/detail/ar0516e00063/",
    "location": {
      "type": "Point",
      "coordinates": [
        137.301228,
        36.758828
      ]
    }
  },
  {
    "name": "第39回 くろべ生地浜海上花火大会",
    "area": "富山県・黒部市/生地浜海岸",
    "date": "日程：2025年7月26日(土)",
    "link": "https://hanabi.walkerplus.com/detail/ar0516e00065/",
    "location": {
      "type": "Point",
      "coordinates": [
        137.412777,
        36.893411
      ]
    }
  },
  {
    "name": "北國花火2025 金沢大会(復興支援大会in金沢)",
    "area": "石川県・金沢市/金沢市大豆田本町犀川緑地周辺(石川県営まめだ簡易グラウンド)",
    "date": "日程：2025年7月26日(土)",
    "link": "https://hanabi.walkerplus.com/detail/ar0517e01101/",
    "location": {
      "type": "Point",
      "coordinates": [
        136.634548,
        36.569149
      ]
    }
  },
  {
    "name": "SUMMER FESTA MIHAMA 2025 Go for world！(サマーフェスタ美浜 ゴーフォーワールド！)",
    "area": "福井県・三方郡美浜町/美浜町総合運動公園",
    "date": "日程：2025年7月26日(土)",
    "link": "https://hanabi.walkerplus.com/detail/ar0518e511371/",
    "location": {
      "type": "Point",
      "coordinates": [
        135.913672,
        35.601596
      ]
    }
  },
  {
    "name": "山梨市制施行20周年記念事業 第66回 笛吹川県下納涼花火大会",
    "area": "山梨県・山梨市/笛吹川万力大橋下流",
    "date": "日程：2025年7月26日(土)",
    "link": "https://hanabi.walkerplus.com/detail/ar0419e00074/",
    "location": {
      "type": "Point",
      "coordinates": [
        138.682422,
        35.691031
      ]
    }
  },
  {
    "name": "第29回 村民夏まつり",
    "area": "長野県・下伊那郡泰阜村/泰阜村総合グラウンド",
    "date": "日程：2025年7月26日(土)",
    "link": "https://hanabi.walkerplus.com/detail/ar0420e00082/",
    "location": {
      "type": "Point",
      "coordinates": [
        137.846295,
        35.379114
      ]
    }
  },
  {
    "name": "第101回 野尻湖花火大会",
    "area": "長野県・上水内郡信濃町/野尻湖上",
    "date": "日程：2025年7月26日(土)",
    "link": "https://hanabi.walkerplus.com/detail/ar0420e00684/",
    "location": {
      "type": "Point",
      "coordinates": [
        138.21142,
        36.831959
      ]
    }
  },
  {
    "name": "第69回 大垣花火大会",
    "area": "岐阜県・大垣市/大垣市東町地内揖斐川河畔",
    "date": "日程：2025年7月26日(土)",
    "link": "https://hanabi.walkerplus.com/detail/ar0621e00826/",
    "location": {
      "type": "Point",
      "coordinates": [
        136.656597,
        35.369987
      ]
    }
  },
  {
    "name": "栃尾温泉やまびこ花火大会",
    "area": "岐阜県・高山市/奥飛騨温泉郷栃尾 高原川一帯",
    "date": "日程：2025年7月26日(土)",
    "link": "https://hanabi.walkerplus.com/detail/ar0621e01009/",
    "location": {
      "type": "Point",
      "coordinates": [
        137.509511,
        36.247112
      ]
    }
  },
  {
    "name": "第52回 恵那納涼水上花火大会",
    "area": "岐阜県・恵那市/恵那峡",
    "date": "日程：2025年7月26日(土)",
    "link": "https://hanabi.walkerplus.com/detail/ar0621e00830/",
    "location": {
      "type": "Point",
      "coordinates": [
        137.406167,
        35.482357
      ]
    }
  },
  {
    "name": "土岐市制70周年記念 炎の祭典 第67回 土岐市織部まつり",
    "area": "岐阜県・土岐市/土岐川河川敷　浅野河原",
    "date": "日程：2025年7月26日(土)",
    "link": "https://hanabi.walkerplus.com/detail/ar0621e356763/",
    "location": {
      "type": "Point",
      "coordinates": [
        137.192714,
        35.361609
      ]
    }
  },
  {
    "name": "全国花火名人選抜競技大会 ふくろい遠州の花火2025",
    "area": "静岡県・袋井市/袋井市原野谷川親水公園",
    "date": "日程：2025年7月26日(土)",
    "link": "https://hanabi.walkerplus.com/detail/ar0622e00915/",
    "location": {
      "type": "Point",
      "coordinates": [
        137.943847,
        34.749233
      ]
    }
  },
  {
    "name": "白浜海の祭典 納涼花火大会",
    "area": "静岡県・下田市/白浜大浜海水浴場",
    "date": "日程：2025年7月26日(土)",
    "link": "https://hanabi.walkerplus.com/detail/ar0622e00246/",
    "location": {
      "type": "Point",
      "coordinates": [
        138.973207,
        34.689326
      ]
    }
  },
  {
    "name": "新居諏訪神社奉納煙火祭礼",
    "area": "静岡県・湖西市/静岡県湖西市新居中学校グラウンド",
    "date": "日程：2025年7月26日(土)",
    "link": "https://hanabi.walkerplus.com/detail/ar0622e01060/",
    "location": {
      "type": "Point",
      "coordinates": [
        137.555779,
        34.695351
      ]
    }
  },
  {
    "name": "第56回 熱川海上花火大会",
    "area": "静岡県・賀茂郡東伊豆町/熱川海岸堤防",
    "date": "日程：2025年7月26日(土)",
    "link": "https://hanabi.walkerplus.com/detail/ar0622e00511/",
    "location": {
      "type": "Point",
      "coordinates": [
        139.072297,
        34.813756
      ]
    }
  },
  {
    "name": "第61回 富士山金太郎夏まつり",
    "area": "静岡県・駿東郡小山町/小山町総合文化会館",
    "date": "日程：2025年7月26日(土)",
    "link": "https://hanabi.walkerplus.com/detail/ar0622e191293/",
    "location": {
      "type": "Point",
      "coordinates": [
        138.958155,
        35.349429
      ]
    }
  },
  {
    "name": "衣浦みなとまつり花火大会",
    "area": "愛知県・半田市/衣浦港中央ふ頭",
    "date": "日程：2025年7月26日(土)",
    "link": "https://hanabi.walkerplus.com/detail/ar0623e00810/",
    "location": {
      "type": "Point",
      "coordinates": [
        136.96342,
        34.876961
      ]
    }
  },
  {
    "name": "一つ山ホールディングス presents 第35回 豊浜花火大会",
    "area": "愛知県・知多郡南知多町/豊浜漁港埋立地周辺",
    "date": "日程：2025年7月26日(土)",
    "link": "https://hanabi.walkerplus.com/detail/ar0623e00184/",
    "location": {
      "type": "Point",
      "coordinates": [
        136.937442,
        34.705808
      ]
    }
  },
  {
    "name": "八坂神社祭典",
    "area": "愛知県・北設楽郡東栄町/東栄町大字下田字市場周辺",
    "date": "日程：2025年7月26日(土)八坂神社の祭典は7月26日(土)、27日(日)※27日は神事のみ",
    "link": "https://hanabi.walkerplus.com/detail/ar0623e00201/",
    "location": {
      "type": "Point",
      "coordinates": [
        137.707253,
        35.073384
      ]
    }
  },
  {
    "name": "第72回 津花火大会2025",
    "area": "三重県・津市/津市阿漕浦海岸",
    "date": "日程：2025年7月26日(土)",
    "link": "https://hanabi.walkerplus.com/detail/ar0624e00837/",
    "location": {
      "type": "Point",
      "coordinates": [
        136.522841,
        34.703772
      ]
    }
  },
  {
    "name": "桑名水郷花火大会 2025",
    "area": "三重県・桑名市/揖斐川河畔(鍋屋堤)",
    "date": "日程：2025年7月26日(土)",
    "link": "https://hanabi.walkerplus.com/detail/ar0624e00834/",
    "location": {
      "type": "Point",
      "coordinates": [
        136.696733,
        35.073682
      ]
    }
  },
  {
    "name": "名張川納涼花火大会",
    "area": "三重県・名張市/名張川左岸(名張市黒田地内)",
    "date": "日程：2025年7月26日(土)",
    "link": "https://hanabi.walkerplus.com/detail/ar0624e00838/",
    "location": {
      "type": "Point",
      "coordinates": [
        136.08436,
        34.618305
      ]
    }
  },
  {
    "name": "大淀祇園祭と花火大会",
    "area": "三重県・多気郡明和町/大淀漁港一帯",
    "date": "日程：2025年7月26日(土)祇園祭は東区の宵宮が7月25日(金)、三世古、山大淀が7月26日(土)",
    "link": "https://hanabi.walkerplus.com/detail/ar0624e00207/",
    "location": {
      "type": "Point",
      "coordinates": [
        136.658122,
        34.56556
      ]
    }
  },
  {
    "name": "2025 きほく燈籠祭",
    "area": "三重県・北牟婁郡紀北町/紀北町 長島港",
    "date": "日程：2025年7月26日(土)",
    "link": "https://hanabi.walkerplus.com/detail/ar0624e00836/",
    "location": {
      "type": "Point",
      "coordinates": [
        136.338224,
        34.197925
      ]
    }
  },
  {
    "name": "甲賀流にんにん大花火2025",
    "area": "滋賀県・甲賀市/野洲川河川敷",
    "date": "日程：2025年7月26日(土)",
    "link": "https://hanabi.walkerplus.com/detail/ar0725e00157/",
    "location": {
      "type": "Point",
      "coordinates": [
        136.172722,
        34.961594
      ]
    }
  },
  {
    "name": "あやべ水無月まつり",
    "area": "京都府・綾部市/川糸町由良川周辺",
    "date": "日程：2025年7月26日(土)",
    "link": "https://hanabi.walkerplus.com/detail/ar0726e00770/",
    "location": {
      "type": "Point",
      "coordinates": [
        135.265292,
        35.301192
      ]
    }
  },
  {
    "name": "間人みなと祭",
    "area": "京都府・京丹後市/丹後町間人・間人港周辺",
    "date": "日程：2025年7月26日(土)",
    "link": "https://hanabi.walkerplus.com/detail/ar0726e00533/",
    "location": {
      "type": "Point",
      "coordinates": [
        135.091066,
        35.740248
      ]
    }
  },
  {
    "name": "泉州夢花火 in 堺大魚夜市",
    "area": "大阪府・堺市堺区/堺旧港",
    "date": "日程：2025年7月26日(土)",
    "link": "https://hanabi.walkerplus.com/detail/ar0727e509289/",
    "location": {
      "type": "Point",
      "coordinates": [
        135.463344,
        34.583549
      ]
    }
  },
  {
    "name": "第47回 芦屋サマーカーニバル",
    "area": "兵庫県・芦屋市/潮芦屋ビーチ",
    "date": "日程：2025年7月26日(土)",
    "link": "https://hanabi.walkerplus.com/detail/ar0728e00985/",
    "location": {
      "type": "Point",
      "coordinates": [
        135.307349,
        34.70624
      ]
    }
  },
  {
    "name": "第48回 香住ふるさとまつり海上花火大会",
    "area": "兵庫県・美方郡香美町/香住浜(しおかぜ香苑)沖合",
    "date": "日程：2025年7月26日(土)",
    "link": "https://hanabi.walkerplus.com/detail/ar0728e00772/",
    "location": {
      "type": "Point",
      "coordinates": [
        134.62294,
        35.64036
      ]
    }
  },
  {
    "name": "令和7年 第17回 平維盛の大祭",
    "area": "奈良県・吉野郡野迫川村/平維盛歴史の里",
    "date": "日程：2025年7月26日(土)",
    "link": "https://hanabi.walkerplus.com/detail/ar0729e472701/",
    "location": {
      "type": "Point",
      "coordinates": [
        135.644941,
        34.113302
      ]
    }
  },
  {
    "name": "第73回 港まつり花火大会",
    "area": "和歌山県・和歌山市/和歌山港中埠頭沖合",
    "date": "日程：2025年7月26日(土)",
    "link": "https://hanabi.walkerplus.com/detail/ar0730e00769/",
    "location": {
      "type": "Point",
      "coordinates": [
        135.140472,
        34.209542
      ]
    }
  },
  {
    "name": "第38回 浦富海岸元気フェスティバル(花火大会)",
    "area": "鳥取県・岩美郡岩美町/浦富海水浴場",
    "date": "日程：2025年7月26日(土)",
    "link": "https://hanabi.walkerplus.com/detail/ar0831e00091/",
    "location": {
      "type": "Point",
      "coordinates": [
        134.324962,
        35.591401
      ]
    }
  },
  {
    "name": "第39回  にまごいせ祭",
    "area": "島根県・大田市/仁摩健康公園内仁摩サンドミュージアム周辺",
    "date": "日程：2025年7月26日(土)",
    "link": "https://hanabi.walkerplus.com/detail/ar0832e01008/",
    "location": {
      "type": "Point",
      "coordinates": [
        132.405098,
        35.146581
      ]
    }
  },
  {
    "name": "第79回 落合納涼花火大会",
    "area": "岡山県・真庭市/旧真庭市役所落合振興局跡地前 旭川河川敷",
    "date": "日程：2025年7月26日(土)",
    "link": "https://hanabi.walkerplus.com/detail/ar0833e00691/",
    "location": {
      "type": "Point",
      "coordinates": [
        133.756218,
        35.018826
      ]
    }
  },
  {
    "name": "広島みなと 夢 花火大会～花火ミュージアム～",
    "area": "広島県・広島市南区/広島港1万トンバース(広島市南区)",
    "date": "日程：2025年7月26日(土)",
    "link": "https://hanabi.walkerplus.com/detail/ar0834e00696/",
    "location": {
      "type": "Point",
      "coordinates": [
        132.473863,
        34.351532
      ]
    }
  },
  {
    "name": "沼田本郷夏まつり",
    "area": "広島県・三原市/本郷大橋下流沼田川右岸",
    "date": "日程：2025年7月26日(土)",
    "link": "https://hanabi.walkerplus.com/detail/ar0834e00692/",
    "location": {
      "type": "Point",
      "coordinates": [
        132.985864,
        34.407313
      ]
    }
  },
  {
    "name": "2025宮島さん協賛いんのしま水軍花火大会",
    "area": "広島県・尾道市/土生港周辺",
    "date": "日程：2025年7月26日(土)",
    "link": "https://hanabi.walkerplus.com/detail/ar0834e00103/",
    "location": {
      "type": "Point",
      "coordinates": [
        133.173543,
        34.288336
      ]
    }
  },
  {
    "name": "第58回 菊川夏まつり花火大会",
    "area": "山口県・下関市/菊川ふれあい会館広場周辺",
    "date": "日程：2025年7月26日(土)",
    "link": "https://hanabi.walkerplus.com/detail/ar0835e510167/",
    "location": {
      "type": "Point",
      "coordinates": [
        131.031494,
        34.120483
      ]
    }
  },
  {
    "name": "第47回 ふしの夏まつり",
    "area": "山口県・山口市/椹野川東津河川公園",
    "date": "日程：2025年7月26日(土)",
    "link": "https://hanabi.walkerplus.com/detail/ar0835e00637/",
    "location": {
      "type": "Point",
      "coordinates": [
        131.406992,
        34.100521
      ]
    }
  },
  {
    "name": "光花火大会「#虹はなび」",
    "area": "山口県・光市/光市虹ヶ浜海水浴場一帯",
    "date": "日程：2025年7月26日(土)",
    "link": "https://hanabi.walkerplus.com/detail/ar0835e00107/",
    "location": {
      "type": "Point",
      "coordinates": [
        131.91576,
        33.968248
      ]
    }
  },
  {
    "name": "松山・北条・中島合併20周年 風早海まつり",
    "area": "愛媛県・松山市/北条外港野積場",
    "date": "日程：2025年7月26日(土)",
    "link": "https://hanabi.walkerplus.com/detail/ar0938e469533/",
    "location": {
      "type": "Point",
      "coordinates": [
        132.770471,
        33.977104
      ]
    }
  },
  {
    "name": "2025 にゅうがわ花火大会",
    "area": "愛媛県・西条市/壬生川駅正面線",
    "date": "日程：2025年7月26日(土)",
    "link": "https://hanabi.walkerplus.com/detail/ar0938e510166/",
    "location": {
      "type": "Point",
      "coordinates": [
        133.094413,
        33.938392
      ]
    }
  },
  {
    "name": "第73回 豊前市みなと祭り",
    "area": "福岡県・豊前市/宇島港",
    "date": "日程：2025年7月26日(土)",
    "link": "https://hanabi.walkerplus.com/detail/ar1040e00289/",
    "location": {
      "type": "Point",
      "coordinates": [
        131.143001,
        33.62799
      ]
    }
  },
  {
    "name": "あしや花火大会2025",
    "area": "福岡県・遠賀郡芦屋町/遠賀川河口一帯",
    "date": "日程：2025年7月26日(土)",
    "link": "https://hanabi.walkerplus.com/detail/ar1040e00942/",
    "location": {
      "type": "Point",
      "coordinates": [
        130.668763,
        33.894571
      ]
    }
  },
  {
    "name": "第20回 吉野ヶ里町「夏」ふれあい祭り 花火大会",
    "area": "佐賀県・神埼郡吉野ヶ里町/吉野ヶ里歴史公園",
    "date": "日程：2025年7月26日(土)",
    "link": "https://hanabi.walkerplus.com/detail/ar1041e469989/",
    "location": {
      "type": "Point",
      "coordinates": [
        130.388692,
        33.323949
      ]
    }
  },
  {
    "name": "第34回 太良町納涼夏まつり",
    "area": "佐賀県・藤津郡太良町/太良町道越環境広場周辺および道の駅太良周辺",
    "date": "日程：2025年7月26日(土)",
    "link": "https://hanabi.walkerplus.com/detail/ar1041e00376/",
    "location": {
      "type": "Point",
      "coordinates": [
        130.222943,
        32.961492
      ]
    }
  },
  {
    "name": "疫神社夏祭り今福花火大会",
    "area": "長崎県・松浦市/今福町浦免今福港堤防～疫神社周辺",
    "date": "日程：2025年7月26日(土)",
    "link": "https://hanabi.walkerplus.com/detail/ar1042e00559/",
    "location": {
      "type": "Point",
      "coordinates": [
        129.764798,
        33.355597
      ]
    }
  },
  {
    "name": "令和7年 ありかわ縁日 花火大会",
    "area": "長崎県・南松浦郡新上五島町/有川港堤防",
    "date": "日程：2025年7月26日(土)",
    "link": "https://hanabi.walkerplus.com/detail/ar1042e00314/",
    "location": {
      "type": "Point",
      "coordinates": [
        129.109673,
        32.989477
      ]
    }
  },
  {
    "name": "天草ほんど花火大会",
    "area": "熊本県・天草市/本渡港",
    "date": "日程：2025年7月26日(土)",
    "link": "https://hanabi.walkerplus.com/detail/ar1043e00970/",
    "location": {
      "type": "Point",
      "coordinates": [
        130.202833,
        32.457596
      ]
    }
  },
  {
    "name": "第78回 沼津夏まつり・狩野川花火大会",
    "area": "静岡県・沼津市/狩野川河川敷(永代橋～御成橋～あゆみ橋)",
    "date": "日程：2025年7月26日(土)・27日(日)",
    "link": "https://hanabi.walkerplus.com/detail/ar0622e00888/",
    "location": {
      "type": "Point",
      "coordinates": [
        138.859563,
        35.096116
      ]
    }
  },
  {
    "name": "国府夏まつり",
    "area": "愛知県・豊川市/大社神社",
    "date": "日程：2025年7月26日(土)・27日(日)国府夏まつりは7月25日(金)～27日(日)",
    "link": "https://hanabi.walkerplus.com/detail/ar0623e00181/",
    "location": {
      "type": "Point",
      "coordinates": [
        137.322532,
        34.831807
      ]
    }
  },
  {
    "name": "2025ながさきみなとまつり",
    "area": "長崎県・長崎市/長崎港、長崎水辺の森公園",
    "date": "日程：2025年7月26日(土)・27日(日)",
    "link": "https://hanabi.walkerplus.com/detail/ar1042e00949/",
    "location": {
      "type": "Point",
      "coordinates": [
        129.867096,
        32.739822
      ]
    }
  },
  {
    "name": "海の京都 みやづBAY花火2025",
    "area": "京都府・宮津市/京都府宮津市字文珠天橋公園内",
    "date": "日程：2025年7月19日(土)・24日(木)・26日(土)、8月2日(土)・9日(土)7月19日(土)・24(木)・8月2日(土)は文珠、26日(土)は文珠・由良、8月9日(土)は宮津・文珠・府中で打ち上げ",
    "link": "https://hanabi.walkerplus.com/detail/ar0726e354766/",
    "location": {
      "type": "Point",
      "coordinates": [
        135.186775,
        35.562349
      ]
    }
  },
  {
    "name": "第63回 層雲峡温泉 峡谷火まつり",
    "area": "北海道・上川郡上川町/層雲峡温泉層雲峡園地",
    "date": "日程：2025年7月26日(土)・8月1日(金)～8月16日(土)",
    "link": "https://hanabi.walkerplus.com/detail/ar0101e00752/",
    "location": {
      "type": "Point",
      "coordinates": [
        142.952274,
        43.727924
      ]
    }
  },
  {
    "name": "石和温泉鵜飼花火",
    "area": "山梨県・笛吹市/笛吹市役所本館前笛吹川河川敷",
    "date": "日程：2025年7月20日(日)～8月17日(日)の水・木・土・日7/20・23・24・26・27・30・31・8/2・3・6・7・9・10・13・14・16・17開催(計17日開催)",
    "link": "https://hanabi.walkerplus.com/detail/ar0419e467624/",
    "location": {
      "type": "Point",
      "coordinates": [
        138.641974,
        35.647044
      ]
    }
  },
  {
    "name": "夏の鳥羽湾毎夜連続花火",
    "area": "三重県・鳥羽市/佐田浜、安楽島湾、小浜湾",
    "date": "日程：2025年7月26日(土)～8月19日(火)小浜連続花2025/7/26(土)～8/4(月)、小浜湾8/5(火)～9(土)、安楽島湾8/10(日)～14(木)、佐田浜8/15(金)～19(火)　※7月30日(水)の花火大会は中止となりました",
    "link": "https://hanabi.walkerplus.com/detail/ar0624e00521/",
    "location": {
      "type": "Point",
      "coordinates": [
        136.845083,
        34.491008
      ]
    }
  },
  {
    "name": "ルスツリゾート夏休みスペシャル花火大会",
    "area": "北海道・虻田郡留寿都村/ルスツリゾート敷地内サンサンフィールド付近",
    "date": "日程：2025年7月26日(土)、8月2日(土)・9日(土) ～ 16日(土)・23日(土)",
    "link": "https://hanabi.walkerplus.com/detail/ar0101e00740/",
    "location": {
      "type": "Point",
      "coordinates": [
        140.899175,
        42.750622
      ]
    }
  },
  {
    "name": "Gotemba Night!! 2025 (ゴテンバナイト!!2025)",
    "area": "静岡県・御殿場市/御殿場プレミアム・アウトレット",
    "date": "日程：2025年7月19日(土)・26日(土)、8月2日(土)・9日(土)・16日(土)・23日(土)",
    "link": "https://hanabi.walkerplus.com/detail/ar0622e440974/",
    "location": {
      "type": "Point",
      "coordinates": [
        138.964675,
        35.307384
      ]
    }
  },
  {
    "name": "ムーミン谷の湖上花火大会～夏～",
    "area": "埼玉県・飯能市/ムーミンバレーパーク",
    "date": "日程：2025/7/5日(土)、12日(土)、19日(土)～21日(月)、26日(土)～8/24日(日)2025年8月9日(土)は19:40～20:00「～ムーミンの日記念～花火大会」のスペシャルバージョン",
    "link": "https://hanabi.walkerplus.com/detail/ar0311e516645/",
    "location": {
      "type": "Point",
      "coordinates": [
        139.327329,
        35.87098
      ]
    }
  },
  {
    "name": "諏訪湖サマーナイト花火",
    "area": "長野県・諏訪市/上諏訪温泉諏訪湖上",
    "date": "日程：2025年7月25日(金)～8月24日(日)※8月15日(木)を除く",
    "link": "https://hanabi.walkerplus.com/detail/ar0420e00847/",
    "location": {
      "type": "Point",
      "coordinates": [
        138.109409,
        36.049463
      ]
    }
  },
  {
    "name": "志摩スペイン村 ナイトパレード＆花火",
    "area": "三重県・志摩市/志摩スペイン村",
    "date": "日程：2025年7月26日(土)～8月24日(日)",
    "link": "https://hanabi.walkerplus.com/detail/ar0624e00842/",
    "location": {
      "type": "Point",
      "coordinates": [
        136.846005,
        34.361683
      ]
    }
  },
  {
    "name": "第27回 阿字ヶ浦海岸花火大会",
    "area": "茨城県・ひたちなか市/阿字ヶ浦海岸",
    "date": "日程：2025年7/12(土)、7/19日(土)、7/26(土)、8/2(土)、8/13(水)、8/23(土)、8/30(土)",
    "link": "https://hanabi.walkerplus.com/detail/ar0308e00258/",
    "location": {
      "type": "Point",
      "coordinates": [
        140.62245,
        36.386798
      ]
    }
  },
  {
    "name": "伊東温泉「夢花火」Part1～9",
    "area": "静岡県・伊東市/伊東海岸",
    "date": "日程：2025年7月26日(土)・8月1日(金)・2日(土)・16日(土)・17日(日)・23日(土)・24日(日)・30日(土)",
    "link": "https://hanabi.walkerplus.com/detail/ar0622e00891/",
    "location": {
      "type": "Point",
      "coordinates": [
        139.103163,
        34.973463
      ]
    }
  },
  {
    "name": "南紀白浜温泉 2025年メッセージ花火",
    "area": "和歌山県・西牟婁郡白浜町/白良浜海岸",
    "date": "日程：2025年7月12日(土)・19日(土)・26日(土)、8月2日(土)・9日(土)・16日(土)・23日(土)・30日(土)",
    "link": "https://hanabi.walkerplus.com/detail/ar0730e356982/",
    "location": {
      "type": "Point",
      "coordinates": [
        135.342883,
        33.680475
      ]
    }
  },
  {
    "name": "マザー牧場 サマーナイトファーム",
    "area": "千葉県・富津市/マザー牧場",
    "date": "日程：7/26(土)・27(日)、8/2(土)・3(日)・9(土)～17(日)・23(土)・24(日)・30(土)・31(日)※2025年8月10日(日)の花火大会は天候不良のため中止となりました",
    "link": "https://hanabi.walkerplus.com/detail/ar0312e00546/",
    "location": {
      "type": "Point",
      "coordinates": [
        139.938342,
        35.245799
      ]
    }
  },
  {
    "name": "夏休み！ 神宮花火ナイター",
    "area": "東京都・新宿区/明治神宮野球場",
    "date": "日程：2025/7/19～21・26・27・8/1～3・11～13・19～24・29～317/19～21・8/29～31 広島戦、7/26～27 中日戦、8/1～3・8/22～24 阪神戦、8/11～13 横浜DeNA戦、8/19～21 巨人戦、※全20試合",
    "link": "https://hanabi.walkerplus.com/detail/ar0313e01074/",
    "location": {
      "type": "Point",
      "coordinates": [
        139.717035,
        35.674528
      ]
    }
  },
  {
    "name": "リトルワールド 花火ショー",
    "area": "愛知県・犬山市/野外民族博物館リトルワールド",
    "date": "日程：7/26(土)、27(日)、8/2(土)、3(日)、9(土)～17(日)、23(土)、24(日)、30(土)、31(日)",
    "link": "https://hanabi.walkerplus.com/detail/ar0623e00193/",
    "location": {
      "type": "Point",
      "coordinates": [
        137.027734,
        35.370502
      ]
    }
  },
  {
    "name": "横浜・八景島シーパラダイス「花火シンフォニア」",
    "area": "神奈川県・横浜市金沢区/横浜・八景島シーパラダイス",
    "date": "日程：7/19(土)・20(日)・26(土)、8/2(土)・9(土)・10(日)・16(土)・23(土)、9/13(土)・14(日)※※2025年8月9日(土)・10日(日)・16(土)・23(土)、9/13(土)・14(日)の花火大会は中止となりました",
    "link": "https://hanabi.walkerplus.com/detail/ar0314e01077/",
    "location": {
      "type": "Point",
      "coordinates": [
        139.64954,
        35.336693
      ]
    }
  },
  {
    "name": "ハウステンボス サマーナイト花火",
    "area": "長崎県・佐世保市/ハウステンボス",
    "date": "日程：2025年7月19日土)～9月14日(日)の土日祝、8月11日(祝)～15日(金)",
    "link": "https://hanabi.walkerplus.com/detail/ar1042e72221/",
    "location": {
      "type": "Point",
      "coordinates": [
        129.786913,
        33.080851
      ]
    }
  },
  {
    "name": "西武園ゆうえんち大火祭り",
    "area": "埼玉県・所沢市/西武園ゆうえんち",
    "date": "日程：2025年7月19日(土)～9月15日(祝)の土日祝、8月11日(祝)～8月15日(金)※2025年8月9日(土)～9月15日(祝)の花火演出は中止となりました",
    "link": "https://hanabi.walkerplus.com/detail/ar0311e00439/",
    "location": {
      "type": "Point",
      "coordinates": [
        139.442767,
        35.768364
      ]
    }
  },
  {
    "name": "メッツァの北欧花火2025",
    "area": "埼玉県・飯能市/メッツァ(メッツァビレッジ・ムーミンバレーパーク)",
    "date": "日程：2025/7/12(土)・19(土)・20(日)・26(土)、8/2(土)・10(日)～12(火)・16(土)9/13(土)・14(日)・20(土)・21(日)",
    "link": "https://hanabi.walkerplus.com/detail/ar0311e471906/",
    "location": {
      "type": "Point",
      "coordinates": [
        139.332957,
        35.871121
      ]
    }
  },
  {
    "name": "姫祭夏花火2025",
    "area": "兵庫県・姫路市/姫路セントラルパーク",
    "date": "日程：2025年7月19日(土)～9月28日(日)の土日祝、および8月12日(火)～15日(金)",
    "link": "https://hanabi.walkerplus.com/detail/ar0728e00594/",
    "location": {
      "type": "Point",
      "coordinates": [
        134.76434,
        34.871048
      ]
    }
  },
  {
    "name": "第44回 洞爺湖ロングラン花火大会",
    "area": "北海道・虻田郡洞爺湖町/洞爺湖温泉湖畔",
    "date": "日程：2025年4月28日(月)～10月31日(金)",
    "link": "https://hanabi.walkerplus.com/detail/ar0101e66092/",
    "location": {
      "type": "Point",
      "coordinates": [
        140.823043,
        42.566346
      ]
    }
  },
  {
    "name": "JUNGLIA “HANABI”(ジャングリア花火)",
    "area": "沖縄県・国頭郡今帰仁村/JUNGLIA OKINAWA (ジャングリア沖縄)",
    "date": "日程：2025年7月25日(金)～8月8日(金)・18日(月)～31日(日)、9月以降の開催日は公式サイトを参照",
    "link": "https://hanabi.walkerplus.com/detail/ar1047e553126/",
    "location": {
      "type": "Point",
      "coordinates": [
        127.973601,
        26.642217
      ]
    }
  },
  {
    "name": "第59回 おたる潮まつり 大花火大会",
    "area": "北海道・小樽市/小樽港第3号ふ頭基部",
    "date": "日程：2025年7月27日(日)おたる潮まつりは2025年7月25日(金)〜27日(日)",
    "link": "https://hanabi.walkerplus.com/detail/ar0101e00713/",
    "location": {
      "type": "Point",
      "coordinates": [
        141.004443,
        43.204541
      ]
    }
  },
  {
    "name": "てっし名寄まつり",
    "area": "北海道・名寄市/天塩川曙橋下流河川敷",
    "date": "日程：2025年7月27日(日)",
    "link": "https://hanabi.walkerplus.com/detail/ar0101e00149/",
    "location": {
      "type": "Point",
      "coordinates": [
        142.43917,
        44.348709
      ]
    }
  },
  {
    "name": "第20回 北斗市夏まつり",
    "area": "北海道・北斗市/上磯漁港",
    "date": "日程：2025年7月27日(日)",
    "link": "https://hanabi.walkerplus.com/detail/ar0101e00724/",
    "location": {
      "type": "Point",
      "coordinates": [
        140.649901,
        41.816217
      ]
    }
  },
  {
    "name": "第116回 大沼湖水まつり 花火大会",
    "area": "北海道・亀田郡七飯町/大沼公園広場",
    "date": "日程：2025年7月27日(日)大沼湖水まつりは7月26日(土)・27日(日)  ※2025年7月27日(日)の花火大会は中止となりました",
    "link": "https://hanabi.walkerplus.com/detail/ar0101e00721/",
    "location": {
      "type": "Point",
      "coordinates": [
        140.671608,
        41.985682
      ]
    }
  },
  {
    "name": "第43回 御所湖まつり",
    "area": "岩手県・盛岡市/御所湖上",
    "date": "日程：2025年7月27日(日)",
    "link": "https://hanabi.walkerplus.com/detail/ar0203e00030/",
    "location": {
      "type": "Point",
      "coordinates": [
        141.014402,
        39.67703
      ]
    }
  },
  {
    "name": "登米市佐沼夏祭り花火大会",
    "area": "宮城県・登米市/迫川河川敷",
    "date": "日程：2025年7月27日(日)",
    "link": "https://hanabi.walkerplus.com/detail/ar0204e511547/",
    "location": {
      "type": "Point",
      "coordinates": [
        141.197407,
        38.694686
      ]
    }
  },
  {
    "name": "第58回 おながわみなと祭り",
    "area": "宮城県・牡鹿郡女川町/女川町海岸広場",
    "date": "日程：2025年7月27日(日)",
    "link": "https://hanabi.walkerplus.com/detail/ar0204e510128/",
    "location": {
      "type": "Point",
      "coordinates": [
        141.447335,
        38.445356
      ]
    }
  },
  {
    "name": "二市一ヶ村日橋川「川の祭典」花火大会",
    "area": "福島県・喜多方市/日橋川緑地自由広場 特設花火会場",
    "date": "日程：2025年7月27日(日)",
    "link": "https://hanabi.walkerplus.com/detail/ar0207e00047/",
    "location": {
      "type": "Point",
      "coordinates": [
        139.878546,
        37.59343
      ]
    }
  },
  {
    "name": "三春の里夏まつり2025",
    "area": "福島県・田村郡三春町/三春の里田園生活館周辺",
    "date": "日程：2025年7月27日(日)",
    "link": "https://hanabi.walkerplus.com/detail/ar0207e00048/",
    "location": {
      "type": "Point",
      "coordinates": [
        140.477904,
        37.410801
      ]
    }
  },
  {
    "name": "令和7年度 さいたま市花火大会 大和田公園会場",
    "area": "埼玉県・さいたま市北区/大和田公園周辺",
    "date": "日程：2025年7月27日(日)",
    "link": "https://hanabi.walkerplus.com/detail/ar0311e00873/",
    "location": {
      "type": "Point",
      "coordinates": [
        139.639607,
        35.923585
      ]
    }
  },
  {
    "name": "第57回 見附まつり花火大会",
    "area": "新潟県・見附市/見附運動公園多目的グラウンド内特設会場",
    "date": "日程：2025年7月27日(日)",
    "link": "https://hanabi.walkerplus.com/detail/ar0415e511938/",
    "location": {
      "type": "Point",
      "coordinates": [
        138.931287,
        37.536463
      ]
    }
  },
  {
    "name": "第139回 鉱山祭・花火大会",
    "area": "新潟県・佐渡市/相川浜公園",
    "date": "日程：2025年7月27日(日)",
    "link": "https://hanabi.walkerplus.com/detail/ar0415e00054/",
    "location": {
      "type": "Point",
      "coordinates": [
        138.239071,
        38.030203
      ]
    }
  },
  {
    "name": "射水市制20周年記念 第59回 富山新港花火大会",
    "area": "富山県・射水市/海王丸パーク",
    "date": "日程：2025年7月27日(日)",
    "link": "https://hanabi.walkerplus.com/detail/ar0516e00670/",
    "location": {
      "type": "Point",
      "coordinates": [
        137.107955,
        36.781085
      ]
    }
  },
  {
    "name": "第78回 沼津夏まつり・狩野川花火大会",
    "area": "静岡県・沼津市/狩野川河川敷(永代橋～御成橋～あゆみ橋)",
    "date": "日程：2025年7月26日(土)・27日(日)",
    "link": "https://hanabi.walkerplus.com/detail/ar0622e00888/",
    "location": {
      "type": "Point",
      "coordinates": [
        138.859563,
        35.096116
      ]
    }
  },
  {
    "name": "富士まつり2025",
    "area": "静岡県・富士市/中央公園",
    "date": "日程：2025年7月27日(日)",
    "link": "https://hanabi.walkerplus.com/detail/ar0622e357468/",
    "location": {
      "type": "Point",
      "coordinates": [
        138.667781,
        35.160361
      ]
    }
  },
  {
    "name": "国府夏まつり",
    "area": "愛知県・豊川市/大社神社",
    "date": "日程：2025年7月26日(土)・27日(日)国府夏まつりは7月25日(金)～27日(日)",
    "link": "https://hanabi.walkerplus.com/detail/ar0623e00181/",
    "location": {
      "type": "Point",
      "coordinates": [
        137.322532,
        34.831807
      ]
    }
  },
  {
    "name": "第57回 豊田おいでんまつり花火大会",
    "area": "愛知県・豊田市/白浜公園一帯",
    "date": "日程：2025年7月27日(日)おいでん総踊りは7月26日(土)",
    "link": "https://hanabi.walkerplus.com/detail/ar0623e00808/",
    "location": {
      "type": "Point",
      "coordinates": [
        137.166069,
        35.084539
      ]
    }
  },
  {
    "name": "2025 第43回蒲郡まつり納涼花火大会",
    "area": "愛知県・蒲郡市/蒲郡市内",
    "date": "日程：2025年7月27日(日)",
    "link": "https://hanabi.walkerplus.com/detail/ar0623e00800/",
    "location": {
      "type": "Point",
      "coordinates": [
        0,
        0
      ]
    }
  },
  {
    "name": "みなと舞鶴ちゃった花火大会2025",
    "area": "京都府・舞鶴市/西地区海岸",
    "date": "日程：2025年7月27日(日)",
    "link": "https://hanabi.walkerplus.com/detail/ar0726e00158/",
    "location": {
      "type": "Point",
      "coordinates": [
        135.318937,
        35.452779
      ]
    }
  },
  {
    "name": "日高夏まつり",
    "area": "兵庫県・豊岡市/JR江原駅周辺",
    "date": "日程：2025年7月27日(日)",
    "link": "https://hanabi.walkerplus.com/detail/ar0728e00477/",
    "location": {
      "type": "Point",
      "coordinates": [
        134.780647,
        35.466814
      ]
    }
  },
  {
    "name": "第80回 みなと祭花火大会",
    "area": "鳥取県・境港市/境水道",
    "date": "日程：2025年7月27日(日)",
    "link": "https://hanabi.walkerplus.com/detail/ar0831e00090/",
    "location": {
      "type": "Point",
      "coordinates": [
        133.218002,
        35.545517
      ]
    }
  },
  {
    "name": "波止のまつり納涼花火大会",
    "area": "鳥取県・東伯郡琴浦町/琴浦町赤碕菊港周辺",
    "date": "日程：2025年7月27日(日)",
    "link": "https://hanabi.walkerplus.com/detail/ar0831e511711/",
    "location": {
      "type": "Point",
      "coordinates": [
        133.650937,
        35.514101
      ]
    }
  },
  {
    "name": "第13回 伊予彩まつり 花火大会",
    "area": "愛媛県・伊予市/伊予港防波堤",
    "date": "日程：2025年7月27日(日)",
    "link": "https://hanabi.walkerplus.com/detail/ar0938e00367/",
    "location": {
      "type": "Point",
      "coordinates": [
        132.694477,
        33.757382
      ]
    }
  },
  {
    "name": "きなはいや伊方まつり2025",
    "area": "愛媛県・西宇和郡伊方町/伊方町役場前埋立駐車場",
    "date": "日程：2025年7月27日(日)",
    "link": "https://hanabi.walkerplus.com/detail/ar0938e510351/",
    "location": {
      "type": "Point",
      "coordinates": [
        132.35361,
        33.488352
      ]
    }
  },
  {
    "name": "第19回 香南市みなこい港まつり",
    "area": "高知県・香南市/吉川漁港堤防",
    "date": "日程：2025年7月27日(日)",
    "link": "https://hanabi.walkerplus.com/detail/ar0939e00707/",
    "location": {
      "type": "Point",
      "coordinates": [
        133.693205,
        33.533682
      ]
    }
  },
  {
    "name": "のおがた夏まつり 2025",
    "area": "福岡県・直方市/直方市役所下(直方リバーサイドパーク)",
    "date": "日程：2025年7月27日(日)",
    "link": "https://hanabi.walkerplus.com/detail/ar1040e00933/",
    "location": {
      "type": "Point",
      "coordinates": [
        130.732403,
        33.744186
      ]
    }
  },
  {
    "name": "2025ながさきみなとまつり",
    "area": "長崎県・長崎市/長崎港、長崎水辺の森公園",
    "date": "日程：2025年7月26日(土)・27日(日)",
    "link": "https://hanabi.walkerplus.com/detail/ar1042e00949/",
    "location": {
      "type": "Point",
      "coordinates": [
        129.867096,
        32.739822
      ]
    }
  },
  {
    "name": "第74回 あゆまつり",
    "area": "熊本県・上益城郡甲佐町/緑川河川敷、中甲橋グリーンパーク",
    "date": "日程：2025年7月27日(日)",
    "link": "https://hanabi.walkerplus.com/detail/ar1043e00319/",
    "location": {
      "type": "Point",
      "coordinates": [
        130.809633,
        32.643716
      ]
    }
  },
  {
    "name": "第26回 ななせの火群まつり",
    "area": "大分県・大分市/七瀬川自然公園",
    "date": "日程：2025年7月27日(日)",
    "link": "https://hanabi.walkerplus.com/detail/ar1044e191268/",
    "location": {
      "type": "Point",
      "coordinates": [
        131.575061,
        33.182167
      ]
    }
  },
  {
    "name": "べっぷ火の海まつり納涼花火大会",
    "area": "大分県・別府市/別府スパビーチ沖",
    "date": "日程：2025年7月27日(日)べっぷ火の海まつりは7月26日(土)、27日(日)",
    "link": "https://hanabi.walkerplus.com/detail/ar1044e00990/",
    "location": {
      "type": "Point",
      "coordinates": [
        131.506827,
        33.284446
      ]
    }
  },
  {
    "name": "第43回 夏祭りいずみ鶴翔祭花火大会",
    "area": "鹿児島県・出水市/出水市総合運動公園多目的広場周辺",
    "date": "日程：2025年7月27日(日)",
    "link": "https://hanabi.walkerplus.com/detail/ar1046e00331/",
    "location": {
      "type": "Point",
      "coordinates": [
        130.346879,
        32.086842
      ]
    }
  },
  {
    "name": "第65回 和泊町港まつり",
    "area": "鹿児島県・大島郡和泊町/和泊港",
    "date": "日程：2025年7月27日(日)",
    "link": "https://hanabi.walkerplus.com/detail/ar1046e76838/",
    "location": {
      "type": "Point",
      "coordinates": [
        128.664761,
        27.399421
      ]
    }
  },
  {
    "name": "石和温泉鵜飼花火",
    "area": "山梨県・笛吹市/笛吹市役所本館前笛吹川河川敷",
    "date": "日程：2025年7月20日(日)～8月17日(日)の水・木・土・日7/20・23・24・26・27・30・31・8/2・3・6・7・9・10・13・14・16・17開催(計17日開催)",
    "link": "https://hanabi.walkerplus.com/detail/ar0419e467624/",
    "location": {
      "type": "Point",
      "coordinates": [
        138.641974,
        35.647044
      ]
    }
  },
  {
    "name": "SHIRAHAMA2025花火ラリー",
    "area": "和歌山県・西牟婁郡白浜町/白良浜海水浴場",
    "date": "日程：2025年7月20日(日)・27日(日)、8月3日(日)、17日(日)",
    "link": "https://hanabi.walkerplus.com/detail/ar0730e00774/",
    "location": {
      "type": "Point",
      "coordinates": [
        135.343537,
        33.681723
      ]
    }
  },
  {
    "name": "夏の鳥羽湾毎夜連続花火",
    "area": "三重県・鳥羽市/佐田浜、安楽島湾、小浜湾",
    "date": "日程：2025年7月26日(土)～8月19日(火)小浜連続花2025/7/26(土)～8/4(月)、小浜湾8/5(火)～9(土)、安楽島湾8/10(日)～14(木)、佐田浜8/15(金)～19(火)　※7月30日(水)の花火大会は中止となりました",
    "link": "https://hanabi.walkerplus.com/detail/ar0624e00521/",
    "location": {
      "type": "Point",
      "coordinates": [
        136.845083,
        34.491008
      ]
    }
  },
  {
    "name": "ムーミン谷の湖上花火大会～夏～",
    "area": "埼玉県・飯能市/ムーミンバレーパーク",
    "date": "日程：2025/7/5日(土)、12日(土)、19日(土)～21日(月)、26日(土)～8/24日(日)2025年8月9日(土)は19:40～20:00「～ムーミンの日記念～花火大会」のスペシャルバージョン",
    "link": "https://hanabi.walkerplus.com/detail/ar0311e516645/",
    "location": {
      "type": "Point",
      "coordinates": [
        139.327329,
        35.87098
      ]
    }
  },
  {
    "name": "諏訪湖サマーナイト花火",
    "area": "長野県・諏訪市/上諏訪温泉諏訪湖上",
    "date": "日程：2025年7月25日(金)～8月24日(日)※8月15日(木)を除く",
    "link": "https://hanabi.walkerplus.com/detail/ar0420e00847/",
    "location": {
      "type": "Point",
      "coordinates": [
        138.109409,
        36.049463
      ]
    }
  },
  {
    "name": "志摩スペイン村 ナイトパレード＆花火",
    "area": "三重県・志摩市/志摩スペイン村",
    "date": "日程：2025年7月26日(土)～8月24日(日)",
    "link": "https://hanabi.walkerplus.com/detail/ar0624e00842/",
    "location": {
      "type": "Point",
      "coordinates": [
        136.846005,
        34.361683
      ]
    }
  },
  {
    "name": "マザー牧場 サマーナイトファーム",
    "area": "千葉県・富津市/マザー牧場",
    "date": "日程：7/26(土)・27(日)、8/2(土)・3(日)・9(土)～17(日)・23(土)・24(日)・30(土)・31(日)※2025年8月10日(日)の花火大会は天候不良のため中止となりました",
    "link": "https://hanabi.walkerplus.com/detail/ar0312e00546/",
    "location": {
      "type": "Point",
      "coordinates": [
        139.938342,
        35.245799
      ]
    }
  },
  {
    "name": "夏休み！ 神宮花火ナイター",
    "area": "東京都・新宿区/明治神宮野球場",
    "date": "日程：2025/7/19～21・26・27・8/1～3・11～13・19～24・29～317/19～21・8/29～31 広島戦、7/26～27 中日戦、8/1～3・8/22～24 阪神戦、8/11～13 横浜DeNA戦、8/19～21 巨人戦、※全20試合",
    "link": "https://hanabi.walkerplus.com/detail/ar0313e01074/",
    "location": {
      "type": "Point",
      "coordinates": [
        139.717035,
        35.674528
      ]
    }
  },
  {
    "name": "リトルワールド 花火ショー",
    "area": "愛知県・犬山市/野外民族博物館リトルワールド",
    "date": "日程：7/26(土)、27(日)、8/2(土)、3(日)、9(土)～17(日)、23(土)、24(日)、30(土)、31(日)",
    "link": "https://hanabi.walkerplus.com/detail/ar0623e00193/",
    "location": {
      "type": "Point",
      "coordinates": [
        137.027734,
        35.370502
      ]
    }
  },
  {
    "name": "ハウステンボス サマーナイト花火",
    "area": "長崎県・佐世保市/ハウステンボス",
    "date": "日程：2025年7月19日土)～9月14日(日)の土日祝、8月11日(祝)～15日(金)",
    "link": "https://hanabi.walkerplus.com/detail/ar1042e72221/",
    "location": {
      "type": "Point",
      "coordinates": [
        129.786913,
        33.080851
      ]
    }
  },